Parada;nodo Inter Urbano;TIPO MOBILIARIO (ACTUAL);DISTRITO;DIRECCIÓN;VIAL;Nº;emplazamiento;sentido;Direccion_completa;Coord ED50_X;Coord ED50_Y;CONT PILAS;nº_linea EMT;X ETRS89 U.T.M.;Y ETRS89 U.T.M.;Longitud;Latitud
23;6341;MARQUESINA MOD XXI 5-M STD;MONCLOA-ARAVACA ;PUERTA DE HIERRO;AV; ;JTO. FACULTAD DE ESTADISTICA (2ª MARQ);MONCLOA;PUERTA DE HIERRO, AV JTO FACULTAD DE ESTADISTICA (2ª MARQ) - MONCLOA;437709;4477961;SI;83/133/162/601/611/611A/612/613/621/622/623/624/625/627/628/629/631/635/(DV 641/642/643/)651/652/653/654/655/656/656A/657/645/------658/671/672/672A/673/681/682/683/684/686/686A/687/688/691/661/661A/662/664/N602/N604/N901/N902/N903/N906/N907/;437599,6073;4477753,563;-3.735858;40.448098
24;;MARQUESINA MOD XXI 4-M STD;HORTALEZA ;MAR DE CRISTAL;GTA; ;DESP. C/ AREQUIPA (2 MARQ);C/MAR ADRIATICO;MAR DE CRISTAL, GTA DESP C/ AREQUIPA (2ª MARQ) - C/ MAR ADRIATICO;446051;4480263;SI;112/125/;445941,5885;4480055,464;-3.637687;40.469419
31;;MARQUESINA MOD XXI 5-M STD;CHAMARTIN ;MATEO INURRIA;CALLE; ;FTE. CANAL ISABEL II (2ª MARQ);PZA CASTILLA;MATEO INURRIA, CALLE  FTE CANAL ISABEL II (2ª MARQ) - PZA CASTILLA;441756;4479957;SI;5/66/70/107/129/174/;441646,603;4479749,524;-3.688321;40.466372
53;;MARQUESINA MOD XXI 5-M STD;CHAMBERI ;CASTELLANA;Pº;61;JTO  SAN JUAN DE LA CRUZ (3 MARQ);PZA CIBELES;CASTELLANA, Pº Nº61 JTO SAN JUAN DE LA CRUZ (3ª MARQ) - PZA CIBELES;441406;4477136;SI;7/14/27/40/147/150/------N22/N24/;441296,5797;4476928,513;-3.692188;40.440934
70;;MARQUESINA MOD XXI 5-M STD;CENTRO ;CIBELES (DE);PZA; ;Pº CENTRAL Pº DEL PRADO (3ª MARQ);PZA INDEPENDENCIA;CIBELES (DE), PZA  Pº CENTRAL Pº DEL PRADO (3ª MARQ) - PZA INDEPENDENCIA;441286,8438;4474709;SI;15/52/146/;441177,3979;4474501,501;-3.693369;40.419062
73;;MARQUESINA MOD XXI 5-M STD;CENTRO ;RECOLETOS (DE);Pº;1;ANTES PZA DE CIBELES (1ª MARQ);PZA DE CIBELES;RECOLETOS (DE), Pº Nº1 ANT PZA DE CIBELES (1ª MARQ) - PZA CIBELES;441335,9548;4474828,455;SI;REFUGIO;441226,51;4474620,956;-3.692801;40.420142
78;;MARQUESINA MOD XXI 4-M STD;RETIRO ;CANOVAS DEL CASTILLO;PZA; ;DESP C/ FELIPE IV (1 MARQ);PZA DE CIBELES;CANOVAS DEL CASTILLO, PZA DESP C/ FELIPE IV (1ª MARQ) - PZA CIBELES;441293;4474319;SI;REFUGIO;441183,5499;4474111,499;-3.69326;40.415549
82;;MARQUESINA MOD XXI 4-M STD;RETIRO ;PRADO (DEL);Pº;13;CUESTA MOYANO (1 MARQ);PZA DE CIBELES;PRADO (DEL), Pº Nº13 CUESTA MOYANO (1ª MARQ) - PZA CIBELES;441380,4294;4473698,535;SI;REFUGIO;441270,9721;4473491,029;-3.692173;40.409966
84;;MARQUESINA MOD XXI 5-M STD;CENTRO ;ATOCHA;RDA;30;;GTA EMBAJADORES;ATOCHA, RONDA Nº30 - GTA EMBAJADORES;440817,5564;4473284,961;SI;27/34/36/41/119/C1/------C03/N12/N15/N17/;440708,0975;4473077,46;-3.698768;40.406201
105;;MARQUESINA MOD XXI 4-M STD;CHAMARTIN ;FRAY BERNARDINO SAHAGUN;CALLE;1;ANT PZA MADRE MOLAS;PZA MADRE MOLAS;FRAY BERNARDINO SAHAGUN, CALLE Nº1 ANT PZA MADRE MOLAS - PZA MADRE MOLAS;442071,8802;4479537,322;SI;150/;441962,4778;4479329,84;-3.684557;40.462613
109;;MARQUESINA MOD XXI 4-M REDUCIDA;CHAMARTIN ;ALFONSO XIII;AV;204;;C/FRAY BERNADINO SAH;ALFONSO XIII, AV Nº204  - C/ FRAY BERNADINO SAHAGUN;442417,6652;4479285,314;SI;150/;442308,2593;4479077,826;-3.680455;40.460367
112;;MARQUESINA MOD XXI 5-M STD;CHAMARTIN ;PIO XII;AV;;DESP PZA DEL PERU;M-30;PIO XII, AV DESP PZA DEL PERU - M-30;442766;4479333;SI;16/29/150/N1/;442656,5931;4479125,506;-3.676351;40.460821
113;;MARQUESINA MOD XXI 5-M STD;CHAMARTIN ;PERU;PZA;1;ANT C/ PRINCIPE DE VERGARA;PRINCIPE VERGARA;PERU, PZA Nº1 ANT C/ PRINCIPE DE VERGARA - C/ PRINCIPE DE VERGARA;442717;4479256;SI;51/;442607,5927;4479048,507;-3.676922;40.460124
115;;MARQUESINA MOD XXI 5-M STD;CHAMARTIN ;PIO XII;AV;;JTO. C. COMERCIAL (1ª MARQ);M-30;PIO XII, AV  JTO CENTRO COMERCIAL  (1ª MARQ) - M-30;442795,2982;4479513,673;SI;REFUGIO;442685,8928;4479306,18;-3.676022;40.46245
116;;MARQUESINA MOD XXI 5-M STD;CHAMARTIN ;PIO XII;AV;47;ESQ C/ COMANDANTE FRANCO A 60M.;PPE. VERGARA;PIO XII, AV Nº47 DESP C/ COMANDANTE FRANCO A 60M - C/ PRINCIPE DE VERGARA;442820,6816;4479808,665;SI;16/29/150/N1/;442711,2787;4479601,174;-3.675749;40.46511
125;;MARQUESINA MOD XXI 5-M STD;CHAMARTIN ;BURGOS;AV;;FTE Nº 30;DUQUE PASTRANA;BURGOS, AV FTE Nº 30 - C/ DUQUE PASTRANA;442831;4481395;SI;129/150/174/;442721,6108;4481187,517;-3.675771;40.479401
127;;MARQUESINA MOD XXI 4-M STD;CHAMARTIN ;SAN LUIS;AV;;ANT AV. DE BURGOS;AV. BURGOS;SAN LUIS, AV ANT DE AV DE BURGOS - AV BURGOS;442876;4481562;SI;129/150/;442766,612;4481354,517;-3.675255;40.480908
129;17221;MARQUESINA MOD XXI 5-M REDUCIDA;CIUDAD LINEAL ;SAN LUIS;AV;;DESP C/ CONDADO DE TREVIÑO;AV BURGOS;SAN LUIS, AV DESP C/ CONDADO DE TREVIÑO - AV BURGOS;443140;4481403;SI;129/150/158/;443030,6096;4481195,512;-3.672126;40.479494
132;17023;MARQUESINA MOD XXI 5-M REDUCIDA ;CIUDAD LINEAL ;SAN LUIS;AV;93;-;PZA STOS HUMOSA;SAN LUIS, AV Nº 93 - PZA SANTOS DE LA HUMOSA;443241,6656;4481167,706;SI;129/150/158/;443132,2728;4480960,216;-3.670906;40.477381
136;;MARQUESINA MOD XXI 4-M STD;CIUDAD LINEAL ;ARTURO SORIA;CALLE;324;ANT C/ DE LA CULTURA;M-40;ARTURO SORIA, CALLE Nº 324 ANT C/DE LA CULTURA - M-40;443453;4481288;SI;29/125/129/150/;443343,6074;4481080,507;-3.668423;40.47848
137;16809;MARQUESINA MOD XXI 4-M REDUCIDA;CIUDAD LINEAL ;ARTURO SORIA;CALLE;329;ANT C/CALERUEGA;PZA. CIUDAD LINEAL;ARTURO SORIA, CALLE Nº 329 ANT C/CALERUEGA - PZA CIUDAD LINEAL;443554;4481502;SI;125/129/150/N1/158/;443444,6089;4481294,507;-3.667251;40.480414
140;11317;MARQUESINA MOD XXI 4-M STD;CIUDAD LINEAL ;ARTURO SORIA;CALLE;340;ANT C/ LAUD;M-40;ARTURO SORIA, CALLE Nº 340 ANT C/LAUD - M-40;443784;4481713;SI;125/129/150/N1/158/;443674,6098;4481505,505;-3.664556;40.482331
146;;MARQUESINA MOD XXI 5-M STD;CHAMARTIN ;BURGOS;AV;8;DESP AV PIO XII;AV SAN LUIS;BURGOS, AV. Nº 8 DESP AV PIO XII - AV SAN LUIS;442832,3126;4480691,169;SI;129/150/               ;442722,9173;4480483,682;-3.675692;40.47306
147;;MARQUESINA MOD XXI 5-M STD;SALAMANCA ;MANUEL BECERRA;PZA;;CON FCO. SILVELA 1º DARSENA (2º MARQ);C/ ALCALA;MANUEL BECERRA, PZA  CON FCO SILVELA 1º DARSENA (2ª MARQ) - C/ALCALA;443350,71;4475745,92;SI;156/;443241,2668;4475538,399;-3.669135;40.428547
149;;MARQUESINA MOD XXI 4-M REDUCIDA;SALAMANCA ;DOCTOR ESQUERDO;CALLE;33;FTE AL Nº 22;MANUEL BECERRA;DOCTOR ESQUERDO, CALLE Nº 33 FTE AL Nº 22 - PZA MANUEL BECERRA;443401,3726;4475329,44;SI;2/56/71/143/156/C2/;443291,9248;4475121,915;-3.668501;40.424798
150;;MARQUESINA MOD XXI 5-M STD;SALAMANCA ;DOCTOR ESQUERDO;CALLE;40;DESP C/ DUQUE DE SESTO (1ª MARQ) ;PZA.CONDE CASAL;DOCTOR ESQUERDO, CALLE  Nº 40 DESP C/ DUQUE DE SESTO (1ª MARQ) - PZA CONDE CASAL;443341;4475012;SI;REFUGIO;443231,5491;4474804,475;-3.669184;40.421934
151;;MARQUESINA MOD XXI 4-M STD;SALAMANCA ;DOCTOR ESQUERDO;CALLE;49;FTE CASA DE LA MONEDA;PZA MANUEL BECERRA;DOCTOR ESQUERDO, CALLE Nº 49 FTE CASA DE LA MONEDA - PZA MANUEL BECERRA;443381,9846;4475094,221;SI;2/30/56/71/143/156/;443272,5344;4474886,696;-3.668709;40.422678
159;;MARQUESINA MOD XXI 5-M STD;RETIRO ;O'DONNELL;CALLE;;FTE Nº 9;M - 30;O'DONNELL, CALLE  FTE Nº 9 - M - 30;442361;4474960;SI;20/N8/;442251,5519;4474752,489;-3.680731;40.421399
172;;MARQUESINA MOD XXI 4-M STD;CENTRO ;PRINCESA;CALLE;16;-;MONCLOA;PRINCESA, CALLE Nº16 (2ª MARQ) - MONCLOA;439657;4475481;SI;1/2/44/133/138/C1/------001/N21/;439547,5709;4475273,525;-3.712652;40.4259
175;;MARQUESINA MOD XXI 4-M REDUCIDA;CENTRO ;MARTIRES DE ALCALA;CALLE;4;DESP C/ PRINCESA;C/ BLASCO GARAY;MARTIRES DE ALCALA, CALLE Nº4 DESP C/ PRINCESA - C/ BLASCO GARAY;439580;4475683;SI;2/;439470,5735;4475475,527;-3.713579;40.427714
176;;MARQUESINA MOD XXI 4-M ESTRECHA;CHAMBERI ;BLASCO DE GARAY;CALLE;2;DESP C/ ALBERTO AGUILERA;C/ CEA BERMUDEZ;BLASCO DE GARAY, CALLE Nº2 DESP C/ ALBERTO AGUILERA - C/ CEA BERMUDEZ;439740;4475985;SI;SIN C/H SOLO INDICADOR DE TECHO;439630,5759;4475777,527;-3.711722;40.430447
185;;MARQUESINA MOD XXI 5-M STD;CHAMBERI ;REINA VICTORIA;AV;71;ANT C/ MAESTRO ANGEL LLORCA;GTA CUATRO CAMINOS;REINA VICTORIA, AV Nº 71  ANT C/ MAESTRO ANGEL LLORCA - GTA CUATRO CAMINOS;439543,1872;4477686,717;SI;2/C1/F/;439433,7822;4477479,256;-3.714204;40.445762
186;;MARQUESINA MOD XXI 4-M STD;CHAMBERI ;GUZMAN EL BUENO;CALLE;;JTO DELEGACION DE HACIENDA;C/ALBERTO AGUILERA;GUZMAN EL BUENO, CALLE  JTO DELEGACION DE HACIENDA - C/ ALBERTO AGUILERA;439695,6692;4477692,024;SI;2/;439586,2634;4477484,561;-3.712407;40.445821
190;;MARQUESINA MOD XXI 4-M REDUCIDA;CHAMBERI ;GUZMAN EL BUENO;CALLE;65;ANT C/ FERNANDEZ DE LOS RIOS;ALBERTO AGUILER;GUZMAN EL BUENO, CALLE Nº65 ANT C/ FERNANDEZ DE LOS RIOS - C/ ALBERTO AGUILERA;439617,301;4476582,208;SI;2/;439507,8841;4476374,74;-3.713225;40.435818
191;;MARQUESINA MOD XXI 4-M REDUCIDA;CHAMBERI ;GUZMAN EL BUENO;CALLE;39;ANT C/ MELENDEZ VALDES 60 MTS;ALBERTO AGUILER;GUZMAN EL BUENO, CALLE Nº39 ANT C/ MELENDEZ VALDES (2ª MARQ) - C/ ALBERTO AGUILERA;439599,127;4476326,3;SI;2/;439489,7074;4476118,831;-3.713415;40.433511
194;;MARQUESINA MOD XXI 5-M REDUCIDA;RETIRO ;MENENDEZ PELAYO;AV;17;DESP C/MENORCA;C/PRINCEPE D VERGARA;MENENDEZ PELAYO, AV Nº 17 DESP C/ MENORCA - C/ PRINCEPE DE VERGARA;442491,0716;4474778,018;SI;20/152/N8/;442381,6211;4474570,504;-3.679181;40.419768
199;;MARQUESINA MOD XXI 5-M REDUCIDA ;RETIRO ;IBIZA;CALLE;43;-;AV MENEDEZ PELAYO;IBIZA, CALLE Nº43 - AV MENENDEZ PELAYO;443035;4474606;SI;2/N8/;442925,5459;4474398,477;-3.672755;40.418256
208;;MARQUESINA MOD XXI 4-M STD;CHAMARTIN ;CAIDOS DIVISION AZUL;CALLE;12;ANT DE AV. PIO XII;C/ ARTURO SORIA;CAIDOS DIVISION AZUL, CALLE Nº12 ANT AV PIO XII - C/ ARTURO SORIA;442865,4348;4480055,387;SI;70/107/;442756,0338;4479847,896;-3.675244;40.467335
213;;MARQUESINA MOD XXI 4-M STD;CIUDAD LINEAL ;ARTURO SORIA;CALLE;246;DESP C/ GONZALEZ AMIGO;M-40;ARTURO SORIA, CALLE Nº246 DESP C/ GONZALEZ AMIGO - M-40;443666,8352;4479957,474;SI;70/;443557,4303;4479749,971;-3.665783;40.466508
214;;MARQUESINA MOD XXI 5-M STD;CIUDAD LINEAL ;ARTURO SORIA;CALLE;254;DESP C/ AÑASTRO;M-40;ARTURO SORIA, CALLE Nº254 DESP C/ AÑASTRO - M-40;443652;4480068;SI;7/29/107/N1/;443542,5961;4479860,498;-3.665967;40.467503
215;;MARQUESINA MOD XXI 4-M STD;CIUDAD LINEAL ;ARTURO SORIA;CALLE;;FTE  Nº 228;PZA. CIUDAD LINEAL;ARTURO SORIA, CALLE  FTE  Nº 228 - PZA CIUDAD LINEAL;443725;4479563;SI;7/70/;443615,5915;4479355,494;-3.665061;40.462958
223;;MARQUESINA MOD XXI 4-M STD;CIUDAD LINEAL ;ARTURO SORIA;CALLE;164;-;M-40;ARTURO SORIA, CALLE Nº164 - M-40;444540,9014;4478637,889;SI;11/70/122/N3/;444431,4817;4478430,366;-3.655358;40.454679
225;;MARQUESINA MOD XXI 4-M STD;CIUDAD LINEAL ;ARTURO SORIA;CALLE;136;ANT C/ DIEGO DE AYLLON;M-40;ARTURO SORIA, CALLE Nº136 ANT C/ DIEGO DE AYLLON - M-40;444806,3222;4478214,783;SI;11/70/122/N3/;444696,8979;4478007,254;-3.652191;40.450885
229;;MARQUESINA MOD XXI 5-M REDUCIDA ;CIUDAD LINEAL ;ARTURO SORIA;CALLE;110;DESP C/ JOSE Mª CAVERO;M-40;ARTURO SORIA, CALLE Nº110 DESP C/ JOSE Mª CAVERO - M-40;445077;4477788;SI;21/170/114/N4/;444967,571;4477580,465;-3.648962;40.447059
231;;MARQUESINA MOD XXI 5-M STD;CIUDAD LINEAL ;ARTURO SORIA;CALLE;90;-;M-40;ARTURO SORIA, CALLE Nº90 - M-40;445357;4477567;SI;21/70/;445247,568;4477359,459;-3.645641;40.445086
232;;MARQUESINA MOD XXI 5-M REDUCIDA;CIUDAD LINEAL ;ARTURO SORIA;CALLE;53;FTE HOSPITAL DEL AIRE;PZA. CIUDAD LINEAL;ARTURO SORIA, CALLE Nº53 FTE HOSPITAL DEL AIRE - PZA CIUDAD LINEAL;445499,755;4477444,186;SI;70/;445390,3214;4477236,643;-3.643947;40.443989
236;;MARQUESINA MOD XXI 4-M STD;CIUDAD LINEAL ;ARTURO SORIA;CALLE;5;-;PZA. CIUDAD LINEAL;ARTURO SORIA, CALLE Nº5 - PZA CIUDAD LINEAL;445931;4476835;SI;48/70/;445821,5587;4476627,447;-3.638811;40.438529
240;;MARQUESINA MOD XXI 4-M REDUCIDA;CIUDAD LINEAL ;HERMANOS GARCIA NOBLEJAS;CALLE;28;ANT C/VITAL AZA;PZA ALSACIA;HERMANOS GARCIA NOBLEJAS, CALLE Nº28 ANT C/ VITAL AZA - PZA ALSACIA;446159;4476427;SI;4/38/48/70/105/;446049,5538;4476219,442;-3.636088;40.434869
242;15046;MARQUESINA MOD XXI 5-M STD;CIUDAD LINEAL ;HERMANOS GARCIA NOBLEJAS;CALLE;;DESP C/ASCAO (2ª MARQ);PZA ALSACIA;HERMANOS GARCIA NOBLEJAS, CALLE DESP C/ ASCAO - (2ª MARQ) - PZA ALSACIA;446295;4476166;SI;4/38/48/70/286/288/289/N203/;446185,5506;4475958,438;-3.634462;40.432526
244;;MARQUESINA MOD XXI 5-M STD;CIUDAD LINEAL ;HERMANOS GARCIA NOBLEJAS;CALLE;68;ANT C/ LUIS CAMPOS (2ª MARQ);PZA ALSACIA;HERMANOS GARCIA NOBLEJAS, CALLE Nº68 ANT C/ LUIS CAMPOS (2ª MARQ) - PZA ALSACIA;446491;4475817;SI;4/38/48/70/N6/N203/;446381,5464;4475609,434;-3.632122;40.429395
245;;MARQUESINA MOD XXI 5-M STD;SAN BLAS ;HERMANOS GARCIA NOBLEJAS;CALLE;53;ANT C/ VALDECANILLAS (1ª MARQ);C/ ARTURO SORIA;HERMANOS GARCIA NOBLEJAS, CALLE Nº53 ANT C/ VALDECANILLAS (1ª MARQ) - C/ ARTURO SORIA;446535;4475821;SI;REFUGIO;446425,5463;4475613,433;-3.631604;40.429434
246;;MARQUESINA MOD XXI 5-M STD;CIUDAD LINEAL ;HERMANOS GARCIA NOBLEJAS;CALLE;;JTO C/REALEJOS;PZA ALSACIA;HERMANOS GARCIA NOBLEJAS, CALLE JTO C/REALEJOS - PZA ALSACIA;446595;4475626;SI;4/38/48/70/;446485,5441;4475418,431;-3.63088;40.427681
251;;MARQUESINA MOD XXI 5-M STD;SAN BLAS ;HERMANOS GARCIA NOBLEJAS;CALLE;;FTE  AL Nº 158;C/ARTURO SORIA;HERMANOS GARCIA NOBLEJAS, CALLE FTE AL Nº 158 - C/ ARTURO SORIA;446778,7378;4475356,801;SI;70/;446669,2787;4475149,228;-3.628692;40.425268
252;10849;MARQUESINA MOD XXI 5-M STD;SAN BLAS ;HERMANOS GARCIA NOBLEJAS;CALLE;;ANT AV ARCENTALES;C/ARTURO SORIA;HERMANOS GARCIA NOBLEJAS, CALLE ANT AV ARCENTALES - C/ ARTURO SORIA;446875;4475204;SI;4/38/48/N6/N203/;446765,5394;4474996,425;-3.627544;40.423897
253;;MARQUESINA MOD XXI 4-M STD;CIUDAD LINEAL ;HERMANOS GARCIA NOBLEJAS;CALLE;184;DESP. C/ MATAMOROSA;PZA. ALSACIA;HERMANOS GARCIA NOBLEJAS, CALLE Nº184 DESP C/ MATAMOROSA - PZA ALSACIA;447024,105;4474835,516;SI;70/167/;446914,6407;4474627,937;-3.625756;40.420587
255;;MARQUESINA MOD XXI 4-M STD;SALAMANCA ;GOYA;CALLE;80;ANT C/ FERRAN GONZALEZ;C/ DR. ESQUERDO;GOYA, CALLE Nº 80 ANT C/ FERRAN GONZALEZ - C/ DR ESQUERDO;442897;4475314;SI;30/;442787,5538;4475106,483;-3.674445;40.424625
256;;MARQUESINA MOD XXI 5-M STD;CIUDAD LINEAL ;NICOLAS SALMERON;CALLE;;ANT C/ PAREDES DE NAVA;AV FCO LARGO CABALLERO;NICOLAS SALMERON, CALLE  ANT C/ PAREDES DE NAVA - AV FCO LARGO CABALLERO;446826;4474610;SI;70/106/N7/;446716,5335;4474402,423;-3.628072;40.418543
258;;MARQUESINA MOD XXI 5-M STD;CIUDAD LINEAL ;NICOLAS SALMERON;CALLE;;ANT C/ MATAMOROSA;AV FCO LARGO CABALLERO;NICOLAS SALMERON, CALLE  ANT C/ MATAMOROSA - AV FCO LARGO CABALLERO;446663;4474724;SI;70/106/;446553,5349;4474516,426;-3.630003;40.419559
260;;MARQUESINA MOD XXI 5-M STD;CIUDAD LINEAL ;NICOLAS SALMERON;CALLE;13;DESP C/ RODRIGO DE TRIANA;AV FCO LARGO CABALLERO;NICOLAS SALMERON, CALLE Nº13 DESP C/ RODRIGO DE TRIANA - AV FCO LARGO CABALLERO;446480;4474850;SI;70/106/N7/;446370,5368;4474642,429;-3.632171;40.420683
263;;MARQUESINA MOD XXI 4-M ESTRECHA;CIUDAD LINEAL ;NICOLAS SALMERON;CALLE;;ANT C/ VILLAESCUSA;PZA. ALSACIA;NICOLAS SALMERON, CALLE  ANT C/ VILLAESCUSA - PZA ALSACIA;446305,2294;4474958,086;SI;106/;446195,7678;4474750,518;-3.63424;40.421645
265;;MARQUESINA MOD XXI 4-M STD;CIUDAD LINEAL ;FRANCISCO LARGO CABALLERO;AV;;ALT C/ VILLAESCUSA;AV. HERMANOS GARCIA NOBLEJAS;FRANCISCO LARGO CABALLERO, AV ALT C/ VILLAESCUSA - AV HERMANOS GARCIA NOBLEJAS;446435;4475123;SI;70/;446325,5396;4474915,431;-3.632724;40.423139
268;;MARQUESINA MOD XXI 5-M STD;CHAMARTIN ;LOPEZ DE HOYOS;CALLE;69;-;C/ MARIA DE MOLINA;LOPEZ DE HOYOS, CALLE Nº69 - C/ MARIA DE MOLINA;442808,1456;4477365,459;SI;9/73/N2/;442698,7215;4477157,954;-3.675677;40.443099
278;;MARQUESINA MOD XXI 4-M STD;CENTRO ;HORTALEZA;CALLE;80;DESP C/ GRAVINA;PZA ALONSO MARTINEZ;HORTALEZA, CALLE Nº80 DESP C/ GRAVINA - PZA ALONSO MARTINEZ;440839,033;4475207,945;SI;3/;440729,5948;4475000,454;-3.698693;40.423525
281;;MARQUESINA MOD XXI 4-M STD;CHAMBERI ;FRANCISCO DE ROJAS;CALLE;1;ANT C/SAGASTA;C/ SAGASTA;FRANCISCO DE ROJAS, CALLE Nº1 ANT C/ SAGASTA - C/ SAGASTA;440766;4475780;SI;40/;440656,5684;4475572,513;-3.699608;40.428674
282;;MARQUESINA MOD XXI 5-M STD;CHAMBERI ;FRANCISCO DE ROJAS;CALLE;13;-;C/ SAGASTA;FRANCISCO DE ROJAS, CALLE Nº13 - C/ SAGASTA;440729;4475947;SI;40/;440619,5704;4475739,515;-3.700059;40.430175
284;;MARQUESINA MOD XXI 4-M STD;CHAMBERI ;LUCHANA;CALLE;40;ANT C/ SANTA ENGRACIA;C/ SANTA ENGRACIA;LUCHANA, CALLE Nº40 ANT C/ SANTA ENGRACIA - C/ SANTA ENGRACIA;440893;4476152;SI;40/147/;440783,5718;4475944,514;-3.698145;40.432034
285;;MARQUESINA MOD XXI 4-M REDUCIDA;CHAMBERI ;LUCHANA;CALLE;29;ANT C/JUAN DE AUSTRIA;GTA DE BILBAO;LUCHANA, CALLE Nº29 ANT C/JUAN DE AUSTRIA - GTA DE BILBAO;440848;4476143;SI;40/147/;440738,5719;4475935,514;-3.698675;40.431949
286;;MARQUESINA MOD XXI 4-M REDUCIDA;CHAMBERI ;EDUARDO DATO;Pº;4;DESP C/FERNANDEZ DE LA HOZ;Pº CASTELLANA;EDUARDO DATO, Pº Nº4 DESP C/FERNANDEZ DE LA HOZ - Pº CASTELLANA;441218;4476223;SI;40/147/;441108,5708;4476015,51;-3.69432;40.432696
292;;MARQUESINA MOD XXI 4-M STD;USERA ;RAFAELA YBARRA;AV;;DESP C/ BEASAIN;VILLAVERDE;RAFAELA YBARRA, AV DESP C/ BEASAIN - VILLAVERDE;439623,63;4468921;SI;6/131/;439514,1276;4468713,492;-3.712423;40.366802
293;;MARQUESINA MOD XXI 4-M REDUCIDA;CHAMARTIN ;ALBERTO ALCOCER;CALLE;22;DESP C/ PADRE DAMIAN;C/ COSTA RICA;ALBERTO ALCOCER, CALLE Nº22 DESP C/ PADRE DAMIAN - C/ COSTA RICA;442017;4479090;SI;11/40/;441907,594;4478882,516;-3.685163;40.45858
296;;MARQUESINA MOD XXI 4-M REDUCIDA;CHAMARTIN ;ALBERTO ALCOCER;CALLE;33;DESP Pº DE LA HABANA;Pº CASTELLANA;ALBERTO ALCOCER, CALLE Nº33 DESP Pº DE LA HABANA - Pº CASTELLANA;442255;4479108;SI;11/40/;442145,5932;4478900,513;-3.682358;40.458759
300;;MARQUESINA MOD XXI 5-M REDUCIDA;CHAMARTIN ;COSTA RICA;CALLE;30;ANT C/ VICTOR DE LA SERNA;M-30;COSTA RICA, CALLE Nº30 ANT C/ VICTOR DE LA SERNA - M-30;443109;4479048;SI;7/11/40/87/;442999,5894;4478840,5;-3.672281;40.458277
303;;MARQUESINA MOD XXI 4-M STD;CHAMARTIN ;COSTA RICA;CALLE;27;DESP PZA JOSE Mª SOLER;PZA REPUBLICA DOMINICANA;COSTA RICA, CALLE Nº27 DESP PZA JOSE Mª SOLER - PZA REPUBLICA DOMINICANA;443363;4479125;SI;7/11/40/87/;443253,5891;4478917,497;-3.669292;40.458988
305;;MARQUESINA MOD XXI 5-M STD;CHAMARTIN ;ALFONSO XIII;AV;116;ANT C/ DEL ASTER;C/ FRAY BERNARDINO SAHAGUN;ALFONSO XIII, AV Nº116  ANT C/ DEL ASTER - C/ FRAY BERNARDINO SAHAGUN;443559,567;4478958,394;SI;40/;443450,1539;4478750,887;-3.666959;40.4575
306;;MARQUESINA MOD XXI 4-M STD;CHAMARTIN ;ALFONSO XIII;AV;75;DESP C/ OCTAVA;C/ CORAZON DE MARIA;ALFONSO XIII, AV Nº75 DESP C/ OCTAVA - C/ CORAZON DE MARIA;443549;4478697;SI;40/;443439,5846;4478489,492;-3.66706;40.455145
308;;MARQUESINA MOD XXI 4-M STD;CHAMARTIN ;ALFONSO XIII;AV;51;DESP C/PINTOR RIBERA;C/CORAZON DE MARIA;ALFONSO XIII, AV Nº51 DESP C/ PINTOR RIBERA - C/ CORAZON DE MARIA;443514;4478475;SI;40/;443404,5829;4478267,491;-3.667453;40.453143
311;;MARQUESINA MOD XXI 4-M STD;CHAMARTIN ;ALFONSO XIII;AV;34;DESP C/ LOPEZ DE HOYOS;C/ FRAY BERNARDINO SAHAGUN;ALFONSO XIII, AV Nº34 DESP C/ LOPEZ DE HOYOS  - C/ FRAY BERNARDINO SAHAGUN;443523;4478230;SI;40/43/;443413,5807;4478022,489;-3.667325;40.450936
313;;MARQUESINA MOD XXI 5-M STD;CHAMARTIN ;CORAZON DE MARIA;CALLE;80;ANT C/HUELVA;ALFONSO XIII;CORAZON DE MARIA, CALLE Nº80 ANT C/ HUELVA - C/ ALFONSO XIII;443638,1082;4477955,046;SI;40/43/72/;443528,6861;4477747,532;-3.665943;40.448467
317;;MARQUESINA MOD XXI 5-M STD;CHAMBERI ;CHAMBERI;PZA;;FTE Nº 9;C/ STA ENGRACIA;CHAMBERI, PZA  FTE Nº 9 - C/ STA ENGRACIA;440978;4476214;SI;40/147/;440868,572;4476006,513;-3.697149;40.432598
320;;MARQUESINA MOD XXI 4-M STD;CENTRO ;VALENCIA;RDA;16;ANT GTA EMBAJADORES (2ª MARQ) ;GTA EMBAJADORES;VALENCIA, RONDA Nº16 ANT GTA EMBAJADORES (2ª MARQ) - GTA EMBAJADORES;440573,4358;4473200,074;SI;34/36/41/119/C1/C03/------N12/N15/;440463,9772;4472992,576;-3.701637;40.405418
321;;MARQUESINA MOD XXI 4-M STD;ARGANZUELA ;VALENCIA;RDA;9;DESP C/ ALONSO DEL BARCO (2ª MARQ) ;RONDA DE ATOCHA;VALENCIA, RONDA Nº9 DESP C/ ALONSO DEL BARCO (2ª MARQ) - RONDA DE ATOCHA;440590;4473176;SI;34/36/41/119/C03/N12/N15/;440480,541;4472968,501;-3.701439;40.405203
326;;MARQUESINA MOD XXI 4-M STD;ARGANZUELA ;ACACIAS;Pº;;FTE Nº 43;GTA PIRAMIDES;ACACIAS, Pº  FTE Nº 43 - GTA PIRAMIDES;439858;4472948;SI;34/36/62/116/118/119/----N12/N15/;439748,5422;4472740,509;-3.710043;40.403096
328;;MARQUESINA MOD XXI 4-M REDUCIDA;ARGANZUELA ;ACACIAS;Pº;69;DESP GTA PIRAMIDES ;GTA EMBAJADORES;ACACIAS, Pº Nº69 DESP GTA PIRAMIDES - GTA EMBAJADORES;439585,245;4472727,279;SI;34/36/62/116/118/119/----N12/N15/;439475,7862;4472519,79;-3.713237;40.401088
330;;MARQUESINA MOD XXI 5-M STD;CARABANCHEL ;GENERAL RICARDOS;CALLE;3;ANT GTA M VADILLO (2ª MARQ) ;GTA.MARQUES DE VADILLO;GENERAL RICARDOS, CALLE Nº3 ANT GTA M VADILLO (2ª MARQ) - GTA MARQUES  DE VADILLO;439292;4472293;SI;34/35/118/119/N26/;439182,5379;4472085,512;-3.716651;40.397155
334;;MARQUESINA MOD XXI 4-M STD;CARABANCHEL ;GENERAL RICARDOS;CALLE;83; ;GTA.MARQUES DE VADILLO;GENERAL RICARDOS, CALLE Nº83-85 DESP Cº VIEJO DE LEGANES - GTA MARQUES DE VADILLO;438743,4724;4471909,512;SI;34/35/118/119/N26/;438634,0087;4471702,028;-3.723077;40.39366
336;;MARQUESINA MOD XXI 5-M STD;CARABANCHEL ;GENERAL RICARDOS;CALLE;107;FTE Nº 108;GTA.MARQUES DE VADILLO;GENERAL RICARDOS, CALLE Nº107 FTE Nº 108  - GTA MARQUES DE VADILLO;438547;4471774;SI;34/35/119/N26/;438437,5358;4471566,518;-3.725379;40.392424
337;;MARQUESINA MOD XXI 5-M STD;CARABANCHEL ;GENERAL RICARDOS;CALLE;142;DESP C/ PEDRO DIEZ;C/ EUGENIA MONTIJO;GENERAL RICARDOS, CALLE Nº142 DESP C/ PEDRO DIEZ - C/ EUGENIA MONTIJO;438244;4471565;SI;34/35/118/N26/;438134,535;4471357,52;-3.728928;40.390519
343;;MARQUESINA MOD XXI 5-M STD;CARABANCHEL ;GENERAL RICARDOS;CALLE;218;ANT Pº MARCELINO CAMACHO;C/ EUGENIA MONTIJO;GENERAL RICARDOS, CALLE Nº218 ANT Pº MARCELINO CAMACHO - C/ EUGENIA DE MONTIJO;437367,6298;4470935,215;SI;34/35/N17/;437258,1617;4470727,743;-3.739191;40.38478
348;;MARQUESINA MOD XXI 5-M STD;CARABANCHEL ;GENERAL RICARDOS;CALLE;;DESP  C/ EUGENIA DE MONTIJO;GTA.MARQUES DE VADILLO;GENERAL RICARDOS, CALLE  DESP C/ EUGENIA DE MONTIJO - GTA MARQUES DE VADILLO;436876,484;4470486,742;SI;34/;436767,0136;4470279,272;-3.744933;40.380703
350;;MARQUESINA MOD XXI 4-M REDUCIDA;CARABANCHEL ;EUGENIA DE MONTIJO;CALLE;55;FTE Nº 66;C/ GENERAL RICARDOS;EUGENIA DE MONTIJO, CALLE Nº55 FTE Nº 66 - C/ GENERAL RICARDOS;436772;4470404;SI;34/;436662,5294;4470196,531;-3.746155;40.37995
351;;MARQUESINA MOD XXI 5-M REDUCIDA;CARABANCHEL ;EUGENIA DE MONTIJO;CALLE;88; ;C/ JOAQUIN TURINA;EUGENIA DE MONTIJO, CALLE Nº88 - C/ JOAQUIN TURINA;436597,28;4470220,319;SI;34/;436487,8083;4470012,851;-3.748195;40.378282
353;;MARQUESINA MOD XXI 4-M STD;CARABANCHEL ;DON BOSCO;RDA;;FTE Nº 1;C/ JOAQUIN TURINA;DON BOSCO, RDA  FTE Nº 1 - C/ JOAQUIN TURINA;436324;4469938;SI;34/139/;436214,5267;4469730,533;-3.751386;40.375718
354;;MARQUESINA MOD XXI 4-M STD;CARABANCHEL ;DON BOSCO;RDA;;DESP C/ AZCOITIA;C/ JOAQUIN TURINA;DON BOSCO, RDA  DESP C/ AZCOITIA - C/ JOAQUIN TURINA;436154;4469813;SI;SIN C/H SOLO INDICADOR DE TECHO;436044,5263;4469605,534;-3.753376;40.374579
355;7606;MARQUESINA MOD XXI 5-M STD;CARABANCHEL ;JOAQUIN TURINA;CALLE;;FTE Nº 37;AV AVIACION;JOAQUIN TURINA, CALLE  FTE Nº 37 - AV AVIACION;436047;4469531;SI;34/486/;435937,5236;4469323,534;-3.754608;40.37203
358;7584;MARQUESINA MOD XXI 5-M STD;CARABANCHEL ;JOAQUIN TURINA;CALLE;;FTE Nº 68;C/ EUGENIA MONTIJO;JOAQUIN TURINA, CALLE  FTE Nº 68 - C/ EUGENIA DE MONTIJO;435668,838;4469541,133;SI;34/486/;435559,3643;4469333,671;-3.759063;40.372092
359;7580;MARQUESINA MOD XXI 4-M STD;LATINA ;GENERAL MILLAN ASTRAY;CALLE;55;ANT C/DE LOS RODEOS;AV. RAFAEL FINAL;GENERAL MILLÁN ASTRAY, CALLE  Nº55 ANT C/ LOS RODEOS - AV RAFAEL FINAL;435143;4469861;SI;34/155/483/487/;435033,5338;4469653,545;-3.765289;40.374933
360;7581;MARQUESINA MOD XXI 4-M STD;LATINA ;GENERAL MILLAN ASTRAY;CALLE;68;ANT C/ SOLEDAD CAZORLA;CTRA FORTUNA;GENERAL MILLÁN ASTRAY, CALLE  Nº68 ANT C/ SOLEDAD CAZORLA - CTRA FORTUNA;435126;4469788;SI;34/155/N19/483/487/;435016,5331;4469580,544;-3.765482;40.374274
361;7579;MARQUESINA MOD XXI 4-M STD;LATINA ;GENERAL MILLAN ASTRAY;CALLE;;ANT C/ BLAS CABRERA;C/ RAFAEL FINAT;GENERAL MILLÁN ASTRAY, CALLE ANT C/ BLAS CABRERA - C/ RAFAEL FINAT;435059,7202;4470144,222;SI;34/155/483/487/;434950,2582;4469936,769;-3.766299;40.377478
362;7578;MARQUESINA MOD XXI 4-M STD;LATINA ;GENERAL MILLAN ASTRAY;CALLE;;DESP C/BLAS CABRERA;CTRA FORTUNA;GENERAL MILLÁN ASTRAY, CALLE  DESP C/ BLAS CABRERA - CTRA FORTUNA;435044;4470135;SI;34/155/N19/483/487/;434934,538;4469927,547;-3.766483;40.377394
364;;MARQUESINA MOD XXI 5-M STD;LATINA ;BLAS CABRERA;CALLE;80;ANT C/ JOSE DE CADALSO;C/ GENERAL MILLAN ASTRAY;BLAS CABRERA, CALLE Nº80 ANT C/ JOSE DE CADALSO - C/ GENERAL MILLÁN ASTRAY;434803;4470107;SI;34/N19/;434693,5393;4469899,549;-3.769319;40.377123
365;;MARQUESINA MOD XXI 5-M STD;LATINA ;BLAS CABRERA;CALLE;;FTE Nº 54;AV. LAS AGUILAS;BLAS CABRERA, CALLE  FTE Nº 54 - AV LAS AGUILAS;434543,4648;4470190,374;SI;17/34/139/;434434,0069;4469982,926;-3.772384;40.377853
367;;MARQUESINA MOD XXI 4-M STD;LATINA ;OLIVA DE PLASENCIA;CALLE;26;PROX GENERAL  ROMERO BASART ;C/ MIRABEL;OLIVA DE PLASENCIA, CALLE Nº26 PROX GENERAL  ROMERO BASART - C/ MIRABEL;434314;4470347;SI;34/;434204,5457;4470139,555;-3.775104;40.379246
370;;MARQUESINA MOD XXI 5-M STD;LATINA ;MIRABEL;CALLE;;FTE Nº 36;OLIVA PLASENCIA;MIRABEL, CALLE  FTE Nº 36 - OLIVA PLASENCIA;433868;4470296;SI;34/;433758,5481;4470088,559;-3.780352;40.378752
372;;MARQUESINA MOD XXI 4-M STD;LATINA ;AGUILAS (DE LAS);AV;112; ;AV AVIACION;AGUILAS, (DE LAS) AV Nº112 - 2ª MARQ - AV AVIACION;433862;4470601;SI;17/34/;433752,552;4470393,561;-3.780454;40.381499
373;;MARQUESINA MOD XXI 5-M STD;LATINA ;AGUILAS (DE LAS);AV;20;(2º MARQ);AV AVIACION;AGUILAS, (DE LAS) AV Nº20 (2ª MARQ) - AV AVIACION;434120,766;4470632,15;SI;34/;434011,3166;4470424,709;-3.777409;40.3818
374;;MARQUESINA MOD XXI 5-M STD;LATINA ;OLIVA DE PLASENCIA;CALLE;;FTE Nº 27;C/ BLAS CABRERA;OLIVA DE PLASENCIA, CALLE  FTE Nº 27 - C/ BLAS CABRERA;434158,332;4470330,919;SI;34/39/138/N19/;434048,8785;4470123,476;-3.776936;40.379089
376;;MARQUESINA MOD XXI 5-M STD;CARABANCHEL ;EUGENIA DE MONTIJO;CALLE;;FTE Nº 116 (1ª MARQ) ;GRAL RICARDOS;EUGENIA DE MONTIJO, CALLE  FTE Nº 116 (1ª MARQ) - GRAL RICARDOS;436350;4469750;SI;REFUGIO;436240,5242;4469542,532;-3.751061;40.374026
379;7545;MARQUESINA MOD XXI 5-M STD;CARABANCHEL ;EUGENIA DE MONTIJO;CALLE;100;DESP RONDA DON BOSCO ;LEGANES;EUGENIA DE MONTIJO, CALLE Nº100 DESP RONDA DON BOSCO - LEGANES;436353;4469884;SI;35/147/N17/481/482/486/491/492/493/;436243,5258;4469676,533;-3.751039;40.375234
383;;MARQUESINA MOD XXI 4-M STD;CIUDAD LINEAL ;ULISES;CALLE;2;DESP C/ARTURO SORIA;C/MOSCATELAR;ULISES, CALLE Nº2 DESP C/ARTURO SORIA - C/ MOSCATELAR;444489,1276;4478783,969;SI;120/122/;444379,7094;4478576,448;-3.655981;40.455992
385;;MARQUESINA MOD XXI 4-M STD;HORTALEZA ;MOSCATELAR;CALLE;;JTO Nº 26 DE C/ ULISES;C/SILVANO;MOSCATELAR, CALLE  JTO Nº 26 DE C/ ULISES - C/ SILVANO;444693,7708;4478894,243;SI;120/122/;444584,3528;4478686,719;-3.653577;40.456999
388;;MARQUESINA MOD XXI 5-M STD;HORTALEZA ;MOSCATELAR;CALLE;;ANT C/ PARMA;C/ ARTURO SORIA;MOSCATELAR, CALLE ANT C/ PARMA - C/ ARTURO SORIA;445060,6868;4478914,245;SI;120/122/;444951,2675;4478706,716;-3.649252;40.457203
390;;MARQUESINA MOD XXI 4-M STD;HORTALEZA ;MOSCATELAR;CALLE;31;ANT C/ PLAZA;C/ ARTURO SORIA;MOSCATELAR, CALLE Nº31 ANT C/ PLAZA - C/ ARTURO SORIA;445268;4478921;SI;120/122/;445158,58;4478713,468;-3.646807;40.457278
391;;MARQUESINA MOD XXI 4-M STD;HORTALEZA ;SILVANO;CALLE;;DESP PZA LICEO;M - 40;SILVANO, CALLE DESP PZA LICEO - M-40;445524,5108;4478978,075;SI;120/122/;445415,0903;4478770,54;-3.643787;40.457809
394;;MARQUESINA MOD XXI 4-M STD;HORTALEZA ;SILVANO;CALLE;;FTE LICEO FRANCES;C/ MOSCATELAR;SILVANO, CALLE FTE LICEO FRANCES - C/ MOSCATELAR;445623,6706;4479171,476;SI;120/122/;445514,2514;4478963,941;-3.642634;40.459558
396;;MARQUESINA MOD XXI 4-M STD;HORTALEZA ;SILVANO;CALLE;;DESP C/ ALCORISA;C/ MOSCATELAR;SILVANO, CALLE DESP C/ ALCORISA - C/ MOSCATELAR;445838,3164;4479398,144;SI;120/122/;445728,8983;4479190,606;-3.640122;40.461614
397;;MARQUESINA MOD XXI 4-M STD;HORTALEZA ;SILVANO;CALLE;;DESP C/ ALGABEÑO ;M - 40;SILVANO, CALLE DESP C/ ALGABEÑO - M - 40;446060;4479500;SI;120/122/;445950,5819;4479292,46;-3.637516;40.462546
409;;MARQUESINA MOD XXI 4-M STD;CIUDAD LINEAL ;RAMON Y CAJAL;AV;105;DESP C/ LOPEZ DE HOYOS (2ª MARQ) ;AV. CONCHA ESPINA;RAMON Y CAJAL, AV Nº105 DESP C/ LOPEZ DE HOYOS (2ª MARQ) - AV CONCHA ESPINA;444010;4478527;SI;9/72/73/120/N2/;443900,5814;4478319,484;-3.661609;40.453645
411;;MARQUESINA MOD XXI 4-M REDUCIDA;CHAMARTIN ;RAMON Y CAJAL;AV;69; ;CONCHA ESPINA;RAMON Y CAJAL, AV Nº69 - CONCHA ESPINA;443422;4478413;SI;43/120/;443312,5827;4478205,492;-3.668533;40.452578
413;;MARQUESINA MOD XXI 5-M STD;CHAMARTIN ;RAMON Y CAJAL;AV;1;ANT C/ PRINCIPE DE VERGARA;AV. CONCHA ESPINA;RAMON Y CAJAL, AV Nº1 ANT C/ PRINCIPE DE VERGARA - AV CONCHA ESPINA;442695;4478323;SI;43/52/120/;442585,5847;4478115,502;-3.677098;40.451717
415;;MARQUESINA MOD XXI 5-M STD;CHAMARTIN ;PRINCIPE DE VERGARA;CALLE;203;ANT PZA. CATALUÑA.;AV MENENDEZ PELAYO;PRINCIPE DE VERGARA, CALLE Nº203 ANT PZA CATALUÑA - AV MENENDEZ PELAYO;442615,974;4478041,867;SI;16/29/52/;442506,5565;4477834,369;-3.678004;40.449179
417;;MARQUESINA MOD XXI 5-M STD;CHAMARTIN ;DOCTOR ARCE;AV;;FTE Nº 22;PZA REPUBLICA ARGENTINA;DOCTOR ARCE, AV  FTE Nº 22 - PZA REPUBLICA ARGENTINA;442372;4477851;SI;16/19/;442262,5818;4477643,504;-3.680864;40.447443
419;;MARQUESINA MOD XXI 4-M STD;CHAMARTIN ;JOAQUIN COSTA;CALLE;27; ;Pº DE CASTELLANA;JOAQUIN COSTA, CALLE Nº 27 - Pº DE LA CASTELLANA;441938,62;4477677,78;SI;7/C2/;441829,2021;4477470,289;-3.685958;40.445852
420;;MARQUESINA MOD XXI 4-M REDUCIDA;CHAMARTIN ;JOAQUIN COSTA;CALLE;18; ;C/ FRANCISCO SILVELA;JOAQUIN COSTA, CALLE Nº18 - C/ FRANCISCO SILVELA;441915;4477644;SI;7/C1/;441805,582;4477436,509;-3.686233;40.445546
430;;MARQUESINA MOD XXI 5-M STD;CHAMARTIN ;VELAZQUEZ;CALLE;136;DESP C/ LOPEZ DE HOYOS;AV DOCTOR ARCE;VELAZQUEZ, CALLE Nº136 DESP C/ LOPEZ DE HOYOS - AV DOCTOR ARCE;442209;4476996;SI;16/19/51/N1/;442099,5742;4476788,502;-3.682708;40.439729
432;;MARQUESINA MOD XXI 5-M STD;CHAMARTIN ;VELAZQUEZ;CALLE;146;-;AV DOCTOR ARCE;VELAZQUEZ, CALLE Nº146 - AV DOCTOR ARCE;442229;4477371;SI;16/19/51/N1/;442119,5782;4477163,503;-3.682506;40.443109
438;;MARQUESINA MOD XXI 5-M STD;CHAMARTIN ;SERRANO;CALLE;215;ANT C/VICTOR ANDRES BELAUNDE;PZA  INDEPENDENCIA;SERRANO, CALLE Nº215 ANT C/ VICTOR ANDRES BELAUNDE - PZA  INDEPENDENCIA;442567;4478614;SI;51/N1/;442457,5877;4478406,505;-3.678633;40.45433
441;;MARQUESINA MOD XXI 4-M STD;CHAMARTIN ;SERRANO;CALLE;183; ;PZA  INDEPENDENCIA;SERRANO, CALLE Nº183 - PZA INDEPENDENCIA;442223;4478128;SI;7/51/N1/;442113,5848;4477920,508;-3.682646;40.449928
444;;MARQUESINA MOD XXI 5-M STD;CHAMARTIN ;SERRANO;CALLE;127; ;PZA  INDEPENDENCIA;SERRANO, CALLE Nº127 - PZA INDEPENDENCIA;441921;4477302;SI;16/19/51/N1/CT/;441811,5788;4477094,507;-3.686131;40.442466
445;;MARQUESINA MOD XXI 5-M STD;CHAMARTIN ;SERRANO;CALLE;111; ;PZA  INDEPENDENCIA;SERRANO, CALLE Nº111 - PZA INDEPENDENCIA;441909;4477105;SI;16/19/51/;441799,5767;4476897,506;-3.686255;40.44069
457;;MARQUESINA MOD XXI 5-M REDUCIDA;CHAMARTIN ;RAMON Y CAJAL;AV;4; ;C/ ARTURO SORIA;RAMON Y CAJAL, AV Nº4 - C/ ARTURO SORIA;442950;4478295;SI;43/120/;442840,5835;4478087,498;-3.674088;40.451483
459;;MARQUESINA MOD XXI 5-M STD;CHAMARTIN ;RAMON Y CAJAL;AV;32; ;C/ ARTURO SORIA;RAMON Y CAJAL, AV Nº32 - C/ ARTURO SORIA;443220;4478371;SI;43/120/;443110,5831;4478163,495;-3.670911;40.452186
466;;MARQUESINA MOD XXI 4-M STD;HORTALEZA ;SILVANO;CALLE;105;Nº 105 A 117 ANT C/ JOSE DOMINGO RUS;C/ MOSCATELAR;SILVANO, CALLE  Nº 105 A 117 ANT C/ JOSE DOMINGO RUS - C/ MOSCATELAR;446450,0766;4479520,936;SI;120/N3/;446340,6572;4479313,391;-3.632917;40.462759
467;;MARQUESINA MOD XXI 4-M STD;HORTALEZA ;ANDRES JAUREGUI;PZA;;JTO PARQUE;C/ PEDROÑERAS;ANDRES JAUREGUI, PZA  JTO PARQUE - C/ PEDROÑERAS;446733,5296;4479543,767;SI;120/;446624,1093;4479336,218;-3.629576;40.462983
469;;MARQUESINA MOD XXI 5-M REDUCIDA ;HORTALEZA ;PEDROÑERAS;CALLE;;FTE Nº 3;MOTA DEL CUERVO;PEDROÑERAS, CALLE  FTE Nº 3 - MOTA DEL CUERVO;446693,6674;4479707,405;SI;73/120/;446584,2487;4479499,857;-3.63006;40.464455
472;;MARQUESINA MOD XXI 5-M STD;HORTALEZA ;MOTA DEL CUERVO;CALLE;48;FTE Nº 13;C/ PEDROÑERAS;MOTA DEL CUERVO, CALLE Nº48 FTE Nº 13 - C/ PEDROÑERAS;446551;4479740;SI;73/120/N3/;446441,5821;4479532,454;-3.631745;40.464739
474;;MARQUESINA MOD XXI 5-M STD;HORTALEZA ;MOTA DEL CUERVO;CALLE;16;FTE Nº 1;C/ PEDROÑERAS;MOTA DEL CUERVO, CALLE Nº16 FTE Nº 1 - C/ PEDROÑERAS;446342;4479735;SI;73/120/N3/;446232,5828;4479527,457;-3.63421;40.464681
476;;MARQUESINA MOD XXI 4-M STD;HORTALEZA ;EMIGRANTES;CALLE;;ANT CTRA DE CANILLAS;AV. DEL MACHUPICHU;EMIGRANTES, CALLE ANT CTRA DE CANILLAS - AV DEL MACHUPICHU;446165,4698;4479851,003;SI;112/120/153/;446056,0543;4479643,463;-3.636302;40.465715
477;;MARQUESINA MOD XXI 5-M STD;HORTALEZA ;EMIGRANTES;CALLE;14;-;GTA MAR CRISTAL;EMIGRANTES, CALLE Nº14 - GTA MAR CRISTAL;446114,5334;4480035,519;SI;112/120/153/;446005,1197;4479827,981;-3.636919;40.467373
478;;MARQUESINA MOD XXI 4-M STD;HORTALEZA ;EMIGRANTES;CALLE;;ANT C/ TRIBALDOS;AV. DEL MACHUPICHU;EMIGRANTES, CALLE ANT C/ TRIBALDOS - AV DEL MACHUPICHU;446088,5022;4480022,01;SI;112/120/153/;445979,0885;4479814,472;-3.637224;40.46725
480;;MARQUESINA MOD XXI 4-M STD;HORTALEZA ;AYACUCHO;CALLE;;PZA SANDRO PERTINI;GRAN VIA DE HORTALEZA;AYACUCHO, CALLE  PZA SANDRO PERTINI  - GRAN VIA DE HORTALEZA;445692,4202;4480328,619;SI;87/120/125/172/;445583,0107;4480121,088;-3.641923;40.469986
484;;MARQUESINA MOD XXI 4-M STD;HORTALEZA ;VALDETORRE DEL JARAMA;CALLE;;DESP C/ ANGEL LUIS DE LA HERRAN;GTA SANDRO PERTINI;VALDETORRE DEL JARAMA, CALLE  DESP C/ ANGEL LUIS DE LA HERRAN - GTA SANDRO PERTINI;445425,1566;4480433,01;SI;120/125/172/;445315,749;4480225,484;-3.645084;40.470909
487;;MARQUESINA MOD XXI 4-M STD;HORTALEZA ;VALDETORRE DEL JARAMA;CALLE;;ANT PZA. SANTOS DE HUMOSA;PZA. SANTOS DE LA HUMOSA;VALDETORRE DEL JARAMA, CALLE  ANT PZA SANTOS DE LA HUMOSA - PZA SANTOS DE LA HUMOSA;445158,2926;4480624,423;SI;120/125/172/;445048,8877;4480416,902;-3.648249;40.472616
492;;MARQUESINA MOD XXI 5-M REDUCIDA;CHAMBERI ;ALMAGRO;CALLE;30;ANT C/ MARQUES RISCAL;C/ EDUARDO DATO;ALMAGRO, CALLE Nº30 ANT C/ MARQUES RISCAL - C/ EDUARDO DATO;441354,699;4475958,831;SI;7/;441245,2663;4475751,338;-3.692684;40.430326
494;;MARQUESINA MOD XXI 4-M STD;CHAMBERI ;ALMAGRO;CALLE;44;ANT C/ EDUARDO DATO 25 M.;C/ EDUARDO DATO;ALMAGRO, CALLE Nº44 ANT C/ EDUARDO DATO - C/ EDUARDO DATO;441458;4476165;SI;7/;441348,5689;4475957,507;-3.691486;40.432191
496;;MARQUESINA MOD XXI 4-M STD;FUENCARRAL ;CAMINO DE SANTIAGO;AV;7;DESP C/ ESTELLA;C/ PUERTO DE SOMPORT;CAMINO DE SANTIAGO, AV Nº7 DESP C/ ESTELLA - C/ PUERTO DE SOMPORT;442999,2282;4483311,347;SI;176/               ;442889,8549;4483103,872;-3.673959;40.496676
497;;MARQUESINA MOD XXI 5-M STD;CIUDAD LINEAL ;ARTURO SORIA;CALLE;278;DESP C/ GOMEZ HERMANS  25 M.;M-40;ARTURO SORIA, CALLE Nº278 DESP C/ GOMEZ HERMANS - M-40;443571;4480472;SI;7/29/107/N1/;443461,5999;4480264,501;-3.666959;40.471137
499;;MARQUESINA MOD XXI 5-M STD;CIUDAD LINEAL ;ARTURO SORIA;CALLE;284;ANT C/ ELADIO LOPEZ VILCHES;M-40;ARTURO SORIA, CALLE Nº284 ANT C/ ELADIO LOPEZ VILCHES - M-40;443525;4480702;SI;7/29/107/;443415,6021;4480494,503;-3.667522;40.473205
502;;MARQUESINA MOD XXI 4-M STD;CIUDAD LINEAL ;SAN LUIS;AV;;ANT C/ ARTURO SORIA;C/ ARTURO SORIA;SAN LUIS, AV ANT C/ ARTURO SORIA - C/ ARTURO SORIA;443494;4480985;SI;7/107/;443384,6046;4480777,505;-3.667913;40.475753
503;;MARQUESINA MOD XXI 4-M STD;CIUDAD LINEAL ;SAN LUIS;AV;;ANT C/MARQUES DE ALTAMIRA;PZA SANTOS DE LA HUMOSA;SAN LUIS, AV ANT C/MARQUES DE ALTAMIRA - PZA SANTOS DE LA HUMOSA;443670;4480867;SI;7/107/125/N1/;443560,6029;4480659,502;-3.665826;40.474702
507;;MARQUESINA MOD XXI 5-M STD;HORTALEZA ;CUEVAS DE ALMANZORA;CALLE;2;FTE Nº 113;C/ ROQUETAS DE MAR;CUEVAS DE ALMANZORA, CALLE Nº2 FTE Nº 113 - C/ ROQUETAS DE MAR;444098;4480953;SI;7/29/129/N1/;443988,602;4480745,496;-3.660785;40.475505
508;;MARQUESINA MOD XXI 5-M REDUCIDA ;HORTALEZA ;CUEVAS DE ALMANZORA;CALLE;18;JTO IGLESIA JESUS DE NAZARET;C/ ROQUETAS DE MAR;CUEVAS DE ALMANZORA, CALLE Nº18 JTO IGLESIA JESUS DE NAZARET - C/ ROQUETAS DE MAR;444266;4481107;SI;7/29/129/N1/;444156,6027;4480899,495;-3.658816;40.476904
509;;MARQUESINA MOD XXI 5-M STD;HORTALEZA ;ALICUN;CALLE;14;ANT C/ VELEZ RUBIO;C/ VELEZ RUBIO;ALICUN, CALLE Nº14 ANT C/ VELEZ RUBIO - C/ VELEZ RUBIO;444221;4481352;SI;7/29/129/;444111,605;4481144,497;-3.659369;40.479108
512;;MARQUESINA MOD XXI 4-M REDUCIDA;HORTALEZA ;BACARES;CALLE;;ANT C/ CUEVAS ALMANZORA;C/ CUEVAS DE ALMANZORA;BACARES, CALLE ANT C/ CUEVAS ALMANZORA - C/ CUEVAS DE ALMANZORA ;444057;4480944;SI;7/;443947,6021;4480736,497;-3.661268;40.475421
517;;MARQUESINA MOD XXI 5-M STD;CHAMARTIN ;PRINCIPE DE VERGARA;CALLE;210;ANT AV RAMON Y CAJAL;AV PIO XII;PRINCIPE DE VERGARA, CALLE Nº210 ANT AV RAMON Y CAJAL - AV PIO XII;442667;4478281;SI;16/29/;442557,5844;4478073,502;-3.677424;40.451337
522;;MARQUESINA MOD XXI 5-M REDUCIDA;CHAMBERI ;FERNANDEZ DE LOS RIOS;CALLE;37;ANT C/ VALLEHERMOSO 25MTS.;C/ BRAVO MURILLO;FERNANDEZ DE LOS RIOS, CALLE Nº37 ANT C/ VALLEHERMOSO - C/ BRAVO MURILLO;439972;4476494;SI;16/61/;439862,5803;4476286,527;-3.709035;40.435049
532;;MARQUESINA MOD XXI 4-M STD;SALAMANCA ;MARIA DE MOLINA;CALLE;14;PROXIMO C/SERRANO;AVD AMERICA;MARIA DE MOLINA, CALLE Nº14 PROXIMO C/SERRANO AVD AMERICA;441817;4476775;SI;12/16/N1/;441707,5736;4476567,506;-3.687309;40.437711
537;;MARQUESINA MOD XXI 5-M STD;SALAMANCA ;GENERAL ORAA;CALLE;1;ESQ GLTA E.CASTELAR;GRAL E.CASTELAR;GENERAL ORAA, CALLE Nº1 ESQ GLTA E.CASTELAR GRAL E.CASTELAR;441755;4476569;SI;16/61/;441645,5718;4476361,505;-3.688021;40.435851
542;;MARQUESINA MOD XXI 4-M ESTRECHA CON LUMINARIA;CHAMBERI ;FERNANDO EL CATOLICO;CALLE;52;-;C/ ARCIPRESTE HITA;FERNANDO EL CATOLICO, CALLE Nº52 - C/ ARCIPRESTE HITA;439643;4476415;SI;16/61/;439533,5811;4476207,53;-3.712906;40.434313
545;;MARQUESINA MOD XXI 5-M STD;CENTRO ;TOLEDO;CALLE;54;ANT PZA DE LA CEBADA;GTA PIRAMIDES;TOLEDO, CALLE Nº54 ANT PZA DE LA CEBADA - GTA PIRAMIDES;440008;4473880;SI;17/18/23/35/002/N26/-----S.E/;439898,5516;4473672,512;-3.708364;40.411503
548;;MARQUESINA MOD XXI 4-M STD;CENTRO ;TOLEDO;CALLE;99;ESQ. C/ BASTERO;PZA. MAYOR;TOLEDO, CALLE Nº99  ESQ. C/ BASTERO PZA. MAYOR;439891;4473662;SI;17/18/23/35/002/N26/;439781,5498;4473454,512;-3.709722;40.409531
551;;MARQUESINA MOD XXI 4-M STD;ARGANZUELA ;PONTONES;Pº;29;ESQ PZA FRANCISCO MORENO;PUERTA TOLEDO;PONTONES, Pº Nº29 ESQ PZA FRANCISCO MORENO PUERTA TOLEDO;439398;4473127;SI;17/41/N16/;439288,5464;4472919,515;-3.715481;40.404675
554;;MARQUESINA MOD XXI 4-M STD;CARABANCHEL ;ERMITA DEL SANTO;Pº;;ANT C/ SAN AMBROSIO;PUENTE SEGOVIA;ERMITA DEL SANTO, Pº Nº0 ANTES C/ SAN AMBROSIO PUENTE SEGOVIA;438620;4473036;SI;17/25/N16/;438510,5493;4472828,524;-3.72464;40.403799
558;;MARQUESINA MOD XXI 4-M STD;CARABANCHEL ;VIA CARPETANA;CALLE;53;PASADO EL CANODROMO;Pº ERMITA DEL SANTO;VIA CARPETANA, CALLE Nº53 PASADO EL CANODROMO Pº ERMITA DEL SANTO;437744,07;4472437,526;SI;17/25/N16/;437634,6171;4472230,057;-3.734903;40.398342
560;;MARQUESINA MOD XXI 4-M REDUCIDA;CARABANCHEL ;VIA CARPETANA;CALLE;81;ESQ C/ DEL MOCHUELO;Pº ERMITA SANTO;VIA CARPETANA, CALLE Nº81 ESQ C/ DEL MOCHUELO Pº ERMITA SANTO;437516;4472193;SI;17/25/N16/;437406,5455;4471985,532;-3.737567;40.396122
565;;MARQUESINA MOD XXI 4-M STD;CARABANCHEL ;VIA CARPETANA;CALLE;145;FTE C/ DE LA LAGUNA;Pº  ERMITA DEL SANTO;VIA CARPETANA, CALLE Nº145 FTE C/ DE LA LAGUNA Pº  ERMITA DEL SANTO;437159;4471758;SI;17/;437049,5427;4471550,534;-3.74173;40.392177
566;;MARQUESINA MOD XXI 4-M STD;LATINA ;VIA CARPETANA;CALLE;;FRT AL Nº 185;GTA DEL EJERCITO;VIA CARPETANA, CALLE Nº FRT AL Nº 185 GTA DEL EJERCITO;436953;4471489;SI;17/;436843,5411;4471281,534;-3.744131;40.389738
571;;MARQUESINA MOD XXI 5-M STD;LATINA ;OCAÑA;CALLE;100;ESQ C/ NTRA. SRA. DE LA LUZ;C/ LOS YEBENES;OCAÑA, CALLE Nº100 ESQ C/ NTRA. SRA. DE LA LUZ C/ LOS YEBENES;436184,825;4471023,782;SI;17/N26/;436075,3661;4470816,322;-3.753134;40.385488
572;;MARQUESINA MOD XXI 5-M REDUCIDA ;LATINA ;OCAÑA;CALLE;21;ESQ C/ CAMARENA;C/ VALMOJADO;OCAÑA, CALLE Nº21 ESQ C/ CAMARENA C/ VALMOJADO;435777;4470903;SI;17/;435667,5424;4470695,543;-3.757926;40.384369
575;;MARQUESINA MOD XXI 5-M STD;LATINA ;VALMOJADO;CALLE;;DESP DE C/ MAQUEDA;AV. POBLADOS;VALMOJADO, CALLE Nº0 DESPUÉS DE C/ MAQUEDA AV. POBLADOS;435516,7504;4471116,349;SI;17/138/;435407,2973;4470908,896;-3.761014;40.386271
577;;MARQUESINA MOD XXI 4-M STD;CIUDAD LINEAL ;VIRGEN DEL PORTILLO;CALLE;41;ESQ C/ VIRGEN DE LA NOVENA 5M;VIRGEN NOVENA;VIRGEN DEL PORTILLO, CALLE Nº 39 ESQ C/ VIRGEN DE LA NOVENA 5M VIRGEN NOVENA;445145,9082;4476890,338;SI;48/146/;445036,4704;4476682,797;-3.648072;40.438976
578;7574;MARQUESINA MOD XXI 4-M STD;LATINA ;RAFAEL FINAT;AV;2;DESP AV LAS AGUILAS AV AVIACION;AV AVIACION;RAFAEL FINAT, AV Nº2 DESP AV LAS AGUILAS AV AVIACION;435155;4470826;SI;17/138/483/487/;435045,5458;4470618,549;-3.765246;40.383627
580;7577;MARQUESINA MOD XXI 4-M STD;LATINA ;RAFAEL FINAT;AV;36;ANT DE  C/ GENERAL MILLÁN ASTRAY;AV AVIACION;RAFAEL FINAT, AV Nº36 ANT DE  C/ GENERAL MILLÁN ASTRAY AV AVIACION;434937;4470592;SI;17/138/483/487/;434827,5444;4470384,55;-3.76779;40.381502
582;;MARQUESINA MOD XXI 4-M STD;LATINA ;RAFAEL FINAT;AV;;FTE Nº 67;AV AVIACION;RAFAEL FINAT, AV FTE Nº 67 AV AVIACION;434678;4470306;SI;17/138/;434568,5426;4470098,551;-3.770812;40.378906
584;;MARQUESINA MOD XXI 4-M STD;LATINA ;BLAS CABRERA;CALLE;57;ESQ C/VALLE INCLAN;C/LAS AGUILAS;BLAS CABRERA, CALLE Nº57 ESQ C/VALLE INCLAN C/LAS AGUILAS;434355,275;4470379,072;SI;17/139/;434245,8208;4470171,627;-3.774621;40.379538
585;;MARQUESINA MOD XXI 5-M REDUCIDA ;LATINA ;BLAS CABRERA;CALLE;50;FTE  Nº 69;C/ GENERAL MILLAN ASTRAY;BLAS CABRERA, CALLE Nº50 FTE AL Nº 69 C/ GENERAL MILLÁN ASTRAY;434391,1938;4470290,587;SI;17/34/138/139/;434281,7382;4470083,141;-3.774188;40.378744
586;;MARQUESINA MOD XXI 5-M STD;LATINA ;BLAS CABRERA;CALLE;;ESQ AV DE LAS AGUILAS;C/ RAFAEL FINAT;BLAS CABRERA, CALLE  ESQ C/ LAS AGUILAS C/ RAFAEL FINAT;434280,0146;4470622,882;SI;139/;434170,564;4470415,439;-3.775532;40.381729
589;15777;MARQUESINA MOD XXI 5-M REDUCIDA;CARABANCHEL ;NTRA. SRA. DE FATIMA;AV;31;ESQ C/JUANA UROSA;VIA CARPETANA;NTRA. SRA. DE FATIMA, AV Nº31 ESQ C/JUANA UROSA VIA CARPETANA;436791;4470969;SI;17/35/N17/N26/481/486/;436681,5362;4470761,533;-3.745988;40.385041
590;;MARQUESINA MOD XXI 5-M REDUCIDA ;CARABANCHEL ;MARCELINO CAMACHO;Pº;62;ESQ. C/DOCTOR URQUIOLA;GTA DEL EJERCITO;MARCELINO CAMACHO, Pº Nº62 ESQ. C/DOCTOR URQUIOLA GTA DEL EJERCITO;436940;4471258;SI;17/35/N26/;436830,5387;4471050,533;-3.744261;40.387656
592;;MARQUESINA MOD XXI 5-M STD;LATINA ;VIA CARPETANA;CALLE;;ESQ Pº ERMITA DEL SANTO;Pº ERMITA SANTO;VIA CARPETANA, CALLE Nº0 ANT Pº ERMITA DEL SANTO Pº ERMITA SANTO;438582;4473208;SI;17/N16/;438472,5514;4473000,525;-3.725105;40.405345
594;;MARQUESINA MOD XXI 5-M STD;ARGANZUELA ;TOLEDO;CALLE;120;ESQ. PUERTA TOLEDO;GTA PIRAMIDES;TOLEDO, CALLE Nº120 ESQ. PUERTA TOLEDO GTA PIRAMIDES;439682,919;4473280,038;SI;18/23/35/N26/;439573,4657;4473072,551;-3.712138;40.406075
596;;MARQUESINA MOD XXI 4-M STD;MONCLOA-ARAVACA ;PINTOR ROSALES;Pº;;FTE Nº 16;C/ BAILEN;PINTOR ROSALES, Pº Nº0 FTE Nº 16 C/ BAILEN;439138,102;4475463,59;SI;62/74/;439028,6753;4475256,121;-3.718767;40.425706
604;10905;MARQUESINA MOD XXI 4-M STD;CENTRO ;SAN VICENTE (DE);CUESTA;;FTE ESTACION PRINCIPE PIO;PZA ESPAÑA;SAN VICENTE (DE), CUESTA Nº0 FTE ESTACION PRINCIPE PIO PZA ESPAÑA;439106;4474843;SI;N18/N19/N20/;438996,5667;4474635,528;-3.719086;40.420113
605;;MARQUESINA MOD XXI 5-M STD;CENTRO ;VIRGEN DEL PUERTO;Pº;;DESP.GTA SAN VICENTE (1ºMARQ);C/ SEGOVIA;VIRGEN DEL PUERTO, Pº  DESP GTA SAN VICENTE (1ª MARQ) C/ SEGOVIA;438998;4474758;SI;33/41/;438888,5663;4474550,529;-3.720351;40.419339
608;10771;MARQUESINA MOD XXI 4-M STD;CENTRO ;VIRGEN DEL PUERTO;Pº;;DESP. GTA. SAN VICENTE (3ºMARQ);C/SEGOVIA;VIRGEN DEL PUERTO, Pº GTA SAN VICENTE (3ª MARQ) C/SEGOVIA;438937,4784;4474220,716;SI;25/33/39/138/N18/N19/500/;438828,0391;4474013,243;-3.721013;40.414494
609;;MARQUESINA MOD XXI 5-M STD;CENTRO ;VIRGEN DEL PUERTO;Pº;;DESP. C/ SEGOVIA (2ºMARQ);GTA SAN VICENTE;VIRGEN DEL PUERTO, Pº DESP C/ SEGOVIA (2ª MARQ) GTA SAN VICENTE;438964;4474216;SI;25/33/39/41/62/138/------C1/N18/N19/500/148/;438854,5605;4474008,526;-3.7207;40.414454
614;;MARQUESINA MOD XXI 4-M STD;LATINA ;ERMITA DEL SANTO;Pº;46;FTE Nº23;VIA CARPETANA;ERMITA DEL SANTO, Pº Nº46 FTE Nº23 VIA CARPETANA;438673;4473524;SI;25/;438563,5544;4473316,526;-3.724063;40.408199
617;;MARQUESINA MOD XXI 4-M STD;LATINA ;ERMITA DEL SANTO;Pº;39;ESQ. C/SAN CONRADO;GTA PUENTE SEGOVIA;ERMITA DEL SANTO, Pº Nº39 ESQ. C/SAN CONRADO GTA PUENTE SEGOVIA;438639;4473313;SI;25/;438529,5523;4473105,525;-3.724443;40.406295
618;;MARQUESINA MOD XXI 5-M STD;LATINA ;GALLUR;CALLE;;FTE Nº 1;GTA LOS CARMENES;GALLUR, CALLE Nº0 FTE Nº 1 GTA LOS CARMENES;437684;4472451;SI;25/;437574,5475;4472243,532;-3.735613;40.398459
619;;MARQUESINA MOD XXI 4-M STD;LATINA ;GALLUR;CALLE;;FTE Nº 213;GTA CARMENES;GALLUR, CALLE Nº0 FTE Nº 213 GTA CARMENES;437299;4472410;SI;25/;437189,5489;4472202,536;-3.740145;40.398061
621;;MARQUESINA MOD XXI 4-M STD;LATINA ;DUQUESA DE PARCENT;CALLE;4;DESP GTA LOS CARMENES;C/ CAMARENA;DUQUESA DE PARCENT, CALLE Nº4 DESPUES GTA LOS CARMENES C/ CAMARENA;436947;4472113;SI;25/31/N18/;436837,5481;4471905,538;-3.744263;40.395359
624;;MARQUESINA MOD XXI 4-M STD;LATINA ;DUQUESA DE PARCENT;CALLE;;FTE Nº 54;GTA CARMENES;DUQUESA DE PARCENT, CALLE Nº0 FTE Nº 54 GTA CARMENES;436663,99;4472112,415;SI;25/31/N18/;436554,5401;4471904,956;-3.747598;40.395332
626;;MARQUESINA MOD XXI 4-M STD;LATINA ;DUQUESA DE PARCENT;CALLE;;FTE Nº 114;GTA CARMENES;DUQUESA DE PARCENT, CALLE Nº0 FTE Nº 114 GTA CARMENES;436352,827;4472162,795;SI;25/31/N18/;436243,3799;4471955,339;-3.751269;40.395762
627;7582;MARQUESINA MOD XXI 5-M STD;LATINA ;BARRIO LA FORTUNA;CTRA;;ESQ. C/ JOAQUIN TURIA;Bº DE LA FORTUNA;BARRIO LA FORTUNA, CTRA Nº ESQ. C/ JOAQUIN TURIA Bº DE LA FORTUNA;435093;4469610;SI;155/483/486/487/;434983,5311;4469402,544;-3.765852;40.372668
628;;MARQUESINA MOD XXI 4-M STD;LATINA ;PESETA (DE LA);AV;;DESP.CRTA.BARRIO FORTUNA;VIA LUSITANA;PESETA (DE LA), AV Nº0 DESP.CRTA.BARRIO FORTUNA VIA LUSITANA;435078,4058;4469247,329;SI;155/;434968,9324;4469039,871;-3.765987;40.3694
629;;MARQUESINA MOD XXI 5-M STD;LATINA ;CAMARENA;CALLE;;FTE. Nº105;C/ OCAÑA;CAMARENA, CALLE Nº0 FTE. Nº105 C/ OCAÑA;435967,1016;4471777,414;SI;25/N18/;435857,6529;4471569,96;-3.755775;40.392261
633;;MARQUESINA MOD XXI 4-M STD;LATINA ;ILLESCAS;CALLE;147;ESQ C/TEMBLEQUE;Pº EXTREMADURA;ILLESCAS, CALLE Nº147 ESQ C/TEMBLEQUE Pº EXTREMADURA;435518;4471865;SI;25/121/;435408,5555;4471657,551;-3.761075;40.393015
638;;MARQUESINA MOD XXI 5-M ESTRECHA;LATINA ;SESEÑA;CALLE;;FTE  Nº 77;AV. PADRE PIQUER;SESEÑA, CALLE Nº0 FTE  Nº 77 AV. PADRE PIQUER;435144;4472314;SI;25/;435034,5631;4472106,558;-3.765527;40.397031
639;;MARQUESINA MOD XXI 4-M REDUCIDA;CARABANCHEL ;NTRA. SRA. DE VALVANERA;AV;181;ESQ C/ DE LA LAGUNA;C/ LA OCA;NTRA. SRA. DE VALVANERA, AV Nº181 ESQ C/ DE LA LAGUNA C/ LA OCA;437107;4471958;SI;25/55/119/;436997,5453;4471750,536;-3.742363;40.393975
641;;MARQUESINA MOD XXI 5-M STD;LATINA ;CORACEROS;CALLE;8;-;AV ARQUEROS;CORACEROS, CALLE Nº8  AV ARQUEROS;432374,5296;4470135,59;SI;139/;432265,0862;4469928,163;-3.797927;40.377187
642;;MARQUESINA MOD XXI 4-M STD;LATINA ;ARQUEROS;AV;;ESQ Pº LANZEROS;AV AVIACION;ARQUEROS, AV Nº ESQ Pº LANZEROS AV AVIACION;432683,7212;4470494,978;SI;139/;432574,28;4470287,55;-3.794323;40.380449
643;;MARQUESINA MOD XXI 5-M STD;LATINA ;ARQUEROS;AV;;ESQ C/ GRANADEROS;AV AVIACION;ARQUEROS, AV Nº0 ESQ C/ GRANADEROS AV AVIACION;432918,6364;4470724,58;SI;139/;432809,1965;4470517,151;-3.79158;40.382536
644;;MARQUESINA MOD XXI 4-M STD;LATINA ;AVIACION;AV;;ESQ C/ MEDINA DEL CAMPO;JOAQUIN TURINA;AVIACION, AV Nº0 ESQ C/ MEDINA DEL CAMPO JOAQUIN TURINA;433319,5158;4470562,375;SI;39/139/N19/;433210,0711;4470354,941;-3.78684;40.381107
647;;MARQUESINA MOD XXI 5-M REDUCIDA ;LATINA ;AVIACION;AV;;ESQ C/ MONROY;CTRA. EXTREMADURA;AVIACION, AV Nº0 ESQ C/ MONROY CTRA. EXTREMADURA;433580,9798;4470220,54;SI;39/139/N19/;433471,5289;4470013,102;-3.783725;40.378049
649;;MARQUESINA MOD XXI 4-M STD;CARABANCHEL ;PESETA (DE LA);AV;71;DESP AV CARABANCHEL ALTO;CTRA Bº FORTUNA;PESETA (DE LA), AV Nº71 DESP AV CARABANCHEL ALTO CTRA Bº FORTUNA;436033,8866;4468467,074;SI;35/118/155/E1/;435924,3971;4468259,604;-3.754656;40.362445
652;;MARQUESINA MOD XXI 4-M STD;LATINA ;RAFAEL FINAT;AV;117;ESQ C/ OSA DE LA VEGA;AV POBLADOS;RAFAEL FINAT, AVD Nº117 ESQ C/ OSA DE LA VEGA AV POBLADOS;434495,5678;4469892,913;SI;139/;434386,1065;4469685,464;-3.772918;40.37517
654;;MARQUESINA MOD XXI 5-M STD;LATINA ;AGUILAS (DE LAS);AV;55;ESQ. C/ JOSE DE CADALSO;AV. POBLADOS;AGUILAS, (DE LAS) AV Nº55 ESQ. C/ JOSE DE CADALSO AV. POBLADOS;434626;4470746;SI;139/;434516,5485;4470538,554;-3.771469;40.382865
655;;MARQUESINA MOD XXI 5-M STD;LATINA ;AGUILAS (DE LAS);AV;;FTE Nº 63;AV AVIACION;AGUILAS, (DE LAS) AV FTE Nº 63 AV AVIACION;434559,759;4470747,71;SI;139/;434450,308;4470540,265;-3.77225;40.382875
656;;MARQUESINA MOD XXI 4-M STD;LATINA ;AGUILAS (DE LAS);AV;25;ESQ. C/ DR. BLANCO SOLER;AV. DE LOS POBLADOS;AGUILAS, (DE LAS) AV Nº25 ESQ. C/ DR. BLANCO SOLER AV. DE LOS POBLADOS;434915,4238;4470825,62;SI;139/;434805,9713;4470618,171;-3.768068;40.383605
658;;MARQUESINA MOD XXI 5-M STD;LATINA ;POBLADOS (DE LOS);AV;;ESQ AV RAFAEL FINAT;A-42;POBLADOS (DE LOS), AVD Nº0 ESQ AV RAFAEL FINAT A-42;435528;4470945;SI;121/131/139/;435418,5447;4470737,546;-3.760864;40.384728
660;7595;MARQUESINA MOD XXI 4-M REDUCIDA;LATINA ;POBLADOS (DE LOS);AV;;FTE C.I.E.;A-42;POBLADOS (DE LOS), AVD Nº0 FRENTE C.I.E. A-42;435786;4470612;SI;121/131/139/482/485/491/492/493/;435676,5388;4470404,542;-3.757791;40.381748
662;7593;MARQUESINA MOD XXI 5-M STD;CARABANCHEL ;POBLADOS (DE LOS);AV;;FTE PARQUE EUGENIA DE MONTIJO;A-42;POBLADOS (DE LOS), AV FTE PARQUE EUGENIA DE MONTIJO - A-42;435943;4470230;SI;121/131/139/482/485/491/492/493/;435833,5329;4470022,538;-3.755903;40.378319
666;;MARQUESINA MOD XXI 4-M STD;CARABANCHEL ;CRUCES (LAS);Cº;44;ESQ C/ JOSE JORDAN;JOAQUIN TURINA;CRUCES (LAS), CAMINO Nº44 ESQ C/ JOSE JORDAN JOAQUIN TURINA;435808,5354;4469607,643;SI;139/;435699,0615;4469400,18;-3.757424;40.372702
679;;MARQUESINA MOD XXI 4-M STD;SALAMANCA ;ALCALA;CALLE;153;ANT C/ CONDE PEÑALVER (1ª MARQ);PZA INDEPENDENCIA;ALCALA, CALLE Nº 153 ANT C/ CONDE PEÑALVER (1ª MARQ) - PZA INDEPENDENCIA;442852;4475387;SI;21/43/53/146/CT/;442742,5548;4475179,484;-3.674982;40.425279
687;;MARQUESINA MOD XXI 4-M STD;CARABANCHEL ;PESETA (DE LA);AV;33;ANT C/ PINAR DE SAN JOSE;CTRA Bº LA FORTUNA;PESETA (DE LA), AV Nº33 ANTES C/ PINAR DE SAN JOSE CTRA Bº LA FORTUNA;435385,888;4468635,557;SI;35/155/N17/;435276,4049;4468428,093;-3.762304;40.363913
688;;MARQUESINA MOD XXI 4-M STD;SALAMANCA ;FRANCISCO ALTIMIRAS;CALLE; ;DESP C/ AVD DE LOS TOREROS;C/BIARRITZ;FRANCISCO ALTIMIRAS, CALLE Nº0 DESP C/ AVD DE LOS TOREROS C/ BIARRITZ;443820;4476331;SI;53/74/;443710,5613;4476123,475;-3.663655;40.433849
689;;MARQUESINA MOD XXI 5-M STD;SALAMANCA ;BIARRITZ;CALLE; ;ESQ C/ BRESCIA;AV BRUSELAS;BIARRITZ, CALLE Nº0 ESQ C/ BRESCIA AV BRUSELAS;443794,068;4476510,417;SI;43/53/74/N3/;443684,6312;4476302,894;-3.663976;40.435464
691;;MARQUESINA MOD XXI 5-M STD;SALAMANCA ;BRUSELAS;AV;51;ESQ C/ BREMEN;C/ AZCONA;BRUSELAS, AV Nº51 ESQ C/ BREMEN C/ AZCONA;443865,254;4476875,306;SI;43/53/74/N3/;443755,8208;4476667,783;-3.663169;40.438756
692;;MARQUESINA MOD XXI 4-M REDUCIDA;SALAMANCA ;BRUSELAS;AV;68;PROX. PZA. VENECIA;PZA. VENECIA;BRUSELAS, AV Nº68 PROX. PZA. VENECIA PZA. VENECIA;443894,069;4477061,486;SI;43/74/N3/;443784,6376;4476853,964;-3.662846;40.440435
695;;MARQUESINA MOD XXI 5-M ESTRECHA;CIUDAD LINEAL ;BADAJOZ;AV;;FTE  Nº 12;M-30;BADAJOZ, AV Nº0 FTE  Nº 12 M-30;444448,3094;4477121,44;SI;53/122/N3/;444338,8766;4476913,91;-3.656317;40.441012
697;;MARQUESINA MOD XXI 4-M STD;CIUDAD LINEAL ;TORRELAGUNA;CALLE;;FTE Nº 63;C/LOPEZ DE HOYOS;TORRELAGUNA, CALLE Nº0 FTE Nº 63 C/LOPEZ DE HOYOS;444638;4477393;SI;11/;444528,5692;4477185,469;-3.654104;40.443471
699;;MARQUESINA MOD XXI 4-M STD;CIUDAD LINEAL ;TORRELAGUNA;CALLE;56;DESP. CONDESA DE VENADITO;LOPEZ DE HOYOS;TORRELAGUNA, CALLE Nº56 DESP. CONDESA DE VENADITO LOPEZ DE HOYOS;444576,675;4477523,142;SI;53/122/;444467,2456;4477315,612;-3.654838;40.444639
702;;MARQUESINA MOD XXI 4-M STD;CIUDAD LINEAL ;TORRELAGUNA;CALLE;77;DESP. C/ RAMIREZ DE ARELLANO;BADAJOZ;TORRELAGUNA, CALLE Nº77 DESP. C/ RAMIREZ DE ARELLANO BADAJOZ;444421;4477837;SI;53/;444311,5739;4477629,474;-3.656701;40.447456
704;;MARQUESINA MOD XXI 4-M STD;CIUDAD LINEAL ;TORRELAGUNA;CALLE;85;DESP. C/ ENTRENA;BADAJOZ;TORRELAGUNA, CALLE Nº85 DESP. C/ ENTRENA BADAJOZ;444313,807;4478083,542;SI;53/;444204,3834;4477876,019;-3.657987;40.44967
706;;MARQUESINA MOD XXI 5-M STD;CIUDAD LINEAL ;TORRELAGUNA;CALLE;;ANT C/ RAFAEL BERGAMIN;AV BADAJOZ;TORRELAGUNA, CALLE Nº0 ANTES C/ RAFAEL BERGAMIN AV BADAJOZ;444164;4478241;SI;53/;444054,5784;4478033,48;-3.659767;40.451079
708;;MARQUESINA MOD XXI 5-M STD;CIUDAD LINEAL ;TORRELAGUNA;CALLE;123;DESP. AV RAMON Y CAJAL;AV BADAJOZ;TORRELAGUNA, CALLE Nº123 DESP. AV RAMON Y CAJAL AV BADAJOZ;444085;4478474;SI;53/;443975,5807;4478266,483;-3.660719;40.453172
709;;MARQUESINA MOD XXI 5-M STD;SALAMANCA ;BRISTOL;AV;31;PROX. PUENTE DE LA PAZ;PZA. VENECIA;BRISTOL, AV. Nº31 PROX. PUENTE DE LA PAZ PZA. VENECIA;444007;4477120;SI;53/122/;443897,5688;4476912,476;-3.66152;40.440969
712;;MARQUESINA MOD XXI 5-M STD;SALAMANCA ;JULIO CAMBA;CALLE;3;ESQ. C/ ALCALA;C/ ALCALA;JULIO CAMBA, CALLE Nº3 ESQ. C/ ALCALA C/ ALCALA;443765;4475984;SI;53/CT/;443655,5578;4475776,474;-3.664273;40.430719
722;;MARQUESINA MOD XXI 4-M STD;SALAMANCA ;CARTAGENA;CALLE;67;ESQ C/ FERRER DEL RIO;AV TOREROS;CARTAGENA, CALLE Nº67 ESQ C/ FERRER DEL RIO AV TOREROS;443191;4476701;SI;1/;443081,5674;4476493,486;-3.671103;40.43714
726;;MARQUESINA MOD XXI 4-M REDUCIDA;SALAMANCA ;CARTAGENA;CALLE;8;-;AV TOREROS;CARTAGENA, CALLE Nº8 - AV TOREROS;443241;4476024;SI;1/43/74/;443131,5601;4475816,482;-3.670453;40.431044
728;;MARQUESINA MOD XXI 5-M STD;SALAMANCA ;JOSE ORTEGA Y GASSET;CALLE;87;ESQ FCO SILVELA SERRANO; ;JOSE ORTEGA Y GASSET, CALLE Nº87 ESQ FCO SILVELA SERRANO;443180,2864;4475882,914;SI;1/74/;443070,8452;4475675,396;-3.671157;40.429769
730;;MARQUESINA MOD XXI 4-M STD;SALAMANCA ;JOSE ORTEGA Y GASSET;CALLE;;FTE 60,ESQ C.PEÑALVE;SERRANO;JOSE ORTEGA Y GASSET, CALLE Nº0 FTE 60,ESQ C.PEÑALVE SERRANO;442775;4475919;SI;1/74/;442665,5607;4475711,488;-3.675938;40.430066
732;;MARQUESINA MOD XXI 5-M STD;SALAMANCA ;JOSE ORTEGA Y GASSET;CALLE;33;ESQ C/ CASTELLO;Pº CASTELLANA;JOSE ORTEGA Y GASSET, CALLE Nº33 ESQ C/ CASTELLO Pº CASTELLANA;442375,4062;4475947;SI;1/74/;442265,9686;4475739,494;-3.680651;40.430291
734;;MARQUESINA MOD XXI 4-M STD;CENTRO ;PRINCESA;CALLE;32;DESP  C/ SEMINARIO DE NOBLES;PZA.MONCLOA;PRINCESA, CALLE Nº32 DESP DE C/ SEMINARIO DE NOBLES - PZA MONCLOA;439509,6588;4475743,228;SI;1/44/133/138/C1/001/;439400,2333;4475535,756;-3.714414;40.428252
736;;MARQUESINA MOD XXI 5-M STD;CENTRO ;PRINCESA;CALLE;;ANT  C/ ALBERTO AGUILERA;PZA. MONCLOA;PRINCESA, CALLE ANT C/ ALBERTO AGUILERA - PZA MONCLOA;439396,53;4475958,197;SI;1/44/133/138/C1/001/N21/CT/;439287,1074;4475750,728;-3.715768;40.43018
754;;MARQUESINA MOD XXI 4-M STD;SALAMANCA ;ALCALA;CALLE;149;-;PZA INDEPENDENCIA;ALCALA, CALLE Nº149 - PZA INDEPENDENCIA;442706;4475302;SI;146/N3/N5/N7/;442596,5544;4475094,486;-3.676695;40.424503
755;;MARQUESINA MOD XXI 4-M STD;SALAMANCA ;ALCALA;CALLE;96; ;M-30;ALCALA, CALLE Nº 96 - M-30;442754;4475294;SI;E2/E3/N5/N7/;442644,5541;4475086,485;-3.676129;40.424435
759;;MARQUESINA MOD XXI 5-M STD;CIUDAD LINEAL ;ALCALA;CALLE;261;ESQ. C/RAQUEL MELLER (2ª MARQ);PUERTA DEL SOL;ALCALA, CALLE Nº261 ESQ. C/RAQUEL MELLER (2ª MARQ) - PUERTA DEL SOL;444367;4476119;SI;38/106/146/N5/N7/;444257,5571;4475911,466;-3.657188;40.431976
761;;MARQUESINA MOD XXI 4-M REDUCIDA;CIUDAD LINEAL ;ALCALDE LOPEZ CASERO;CALLE;3;ESQ C/ ALCALA;C/ ALCALA;ALCALDE LOPEZ CASERO, CALLE Nº3 ESQ C/ ALCALA C/ ALCALA;444505,5544;4476177,749;SI;146/;444396,1116;4475970,214;-3.655559;40.432515
762;;MARQUESINA MOD XXI 4-M REDUCIDA;CIUDAD LINEAL ;ALCALDE LOPEZ CASERO;CALLE;20;ESQ. C/VIRGEN DEL LLUC;PZA JOSE BANUS;ALCALDE LOPEZ CASERO, CALLE Nº20 ESQ. C/VIRGEN DEL LLUC PZA JOSE BANUS;444493;4476336;SI;146/;444383,5589;4476128,465;-3.655721;40.433939
764;;MARQUESINA MOD XXI 4-M STD;CIUDAD LINEAL ;JOSE DEL HIERRO;CALLE;;FTE C/ VIRGEN DE LLUC;C/ ARTURO SORIA;JOSE DEL HIERRO, CALLE Nº0 FTE C/ VIRGEN DE LLUC C/ ARTURO SORIA;444728;4476434;SI;48/146/;444618,559;4476226,462;-3.652959;40.434838
765;;MARQUESINA MOD XXI 5-M STD;CIUDAD LINEAL ;JOSE DEL HIERRO;CALLE;;FTE C/ VIRGEN DE LLUC;AVD DONOSTIARRA;JOSE DEL HIERRO, CALLE Nº0 FTE C/ VIRGEN DE LLUC AVD DONOSTIARRA;444747;4476467;SI;21/;444637,5593;4476259,462;-3.652738;40.435136
766;;MARQUESINA MOD XXI 5-M REDUCIDA;CIUDAD LINEAL ;JOSE DEL HIERRO;CALLE;;ESQ C/ VIRGEN SAGRARIO;C/ARTURO SORIA;JOSE DEL HIERRO, CALLE Nº0 ANT C/ VIRGEN SAGRARIO C/ARTURO SORIA;444995,2208;4476605,645;SI;48/146/;444885,7806;4476398,104;-3.649824;40.436402
768;;MARQUESINA MOD XXI 5-M STD;CIUDAD LINEAL ;JOSE DEL HIERRO;CALLE;20;ANT C/ HERMANOS DE PABLO;C/ ARTURO SORIA;JOSE DEL HIERRO, CALLE Nº20 ANT C/ HERMANOS DE PABLO C/ ARTURO SORIA;445252;4476762;SI;48/146/;445142,5605;4476554,457;-3.64681;40.437827
770;;MARQUESINA MOD XXI 5-M STD;CIUDAD LINEAL ;JOSE DEL HIERRO;CALLE;39;ESQ C/ ROSALIA TRUJILLO;AV. DONOSTIARRA;JOSE DEL HIERRO, CALLE Nº39 ESQ C/ ROSALIA TRUJILLO AV. DONOSTIARRA;445467,4184;4477019,467;SI;48/146/;445357,9807;4476811,922;-3.644292;40.440161
773;;MARQUESINA MOD XXI 4-M STD;CIUDAD LINEAL ;MARQUES DE HOYOS;CALLE;18;ESQ/ GRAL ARANAZ;C/ GRAL ARANAZ;MARQUES DE HOYOS, CALLE Nº18 ESQ/ GRAL ARANAZ  C/ GRAL ARANAZ;445892,6436;4477348,327;SI;146/;445783,2077;4477140,777;-3.639307;40.443151
774;;MARQUESINA MOD XXI 4-M STD;LATINA ;BLAS CABRERA;CALLE;;JTO INSTITUTO LEONARDO DA VINCI;C/ VIDAUBA;BLAS CABRERA, CALLE  JTO INSTITUTO LEONARDO DA VINCI C/ VIDAUBA;435177,7046;4470226,477;SI;155/;435068,2428;4470019,023;-3.764917;40.378228
776;;MARQUESINA MOD XXI 4-M STD;CIUDAD LINEAL ;VIRGEN DEL PORTILLO;CALLE;25;ESQ C/ VIRGEN SAGRARIO;AV DONOSTIARRA;VIRGEN DEL PORTILLO, CALLE Nº25 ESQ C/ VIRGEN SAGRARIO AV DONOSTIARRA;444949;4476768;SI;SIN C/H SOLO INDICADOR DE TECHO;444839,5617;4476560,461;-3.650383;40.437861
777;;MARQUESINA MOD XXI 5-M REDUCIDA ;CIUDAD LINEAL ;VIRGEN DEL PORTILLO;CALLE;;ESQ C/ VIRGEN SONSOLES;AV DONOSTIARRA;VIRGEN DEL PORTILLO, CALLE Nº0 ESQ C/ VIRGEN SONSOLES AV DONOSTIARRA;444618;4476561;SI;48/146/;444508,5608;4476353,465;-3.654267;40.435975
779;;MARQUESINA MOD XXI 5-M REDUCIDA;SALAMANCA ;SANCHO DAVILA;CALLE;40;ANT Pº MARQUES DE ZAFRA;PºMARQUES ZAFRA;SANCHO DAVILA, CALLE Nº40 ANT Pº MARQUES DE ZAFRA - PºMARQUES ZAFRA;443971;4475368;SI;12/;443861,5507;4475160,468;-3.66179;40.425184
781;;MARQUESINA MOD XXI 4-M STD;SALAMANCA ;MARQUES DE ZAFRA;Pº;9;ESQ. MARQUES DE MONDEJAR;DOCTOR ESQUERDO;MARQUES DE ZAFRA, Pº Nº9 ESQ. MARQUES DE MONDEJAR DOCTOR ESQUERDO;443522;4475537;SI;12/;443412,554;4475329,475;-3.667097;40.426676
782;;MARQUESINA MOD XXI 5-M STD;SALAMANCA ;FRANCISCO SILVELA;CALLE;;LADO OPUESTO Nº 9;AV AMERICA;FRANCISCO SILVELA, CALLE Nº0 LADO OPUESTO Nº 9 AV AMERICA;443308;4475845;SI;REFUGIO;443198,558;4475637,48;-3.669648;40.429436
785;;MARQUESINA MOD XXI 4-M STD;SALAMANCA ;FRANCISCO SILVELA;CALLE;54;ANT C/ BEJAR (1ª MARQ);C/ JOAQUIN COSTA;FRANCISCO SILVELA, CALLE Nº 54 ANT C/ BEJAR (1ª MARQ) - C/ JOAQUIN COSTA;442897,737;4476459,628;SI;REFUGIO;442788,303;4476252,117;-3.674539;40.434945
786;;MARQUESINA MOD XXI 4-M STD;SALAMANCA ;FRANCISCO SILVELA;CALLE;53; ;PZA DE ROMA;FRANCISCO SILVELA, CALLE Nº 53 - PZA DE ROMA;442945,6034;4476339,883;SI;12/C1/;442836,1679;4476132,371;-3.673964;40.43387
788;;MARQUESINA MOD XXI 4-M REDUCIDA;SALAMANCA ;FRANCISCO SILVELA;CALLE;80;ESQ C/ COSLADA A 20MTS;AV AMERICA;FRANCISCO SILVELA, CALLE Nº80 ESQ C/ COSLADA A 20MTS AV AMERICA;442750;4476647;SI;SIN C/H SOLO INDICADOR DE TECHO;442640,5685;4476439,492;-3.676298;40.436623
791;;MARQUESINA MOD XXI 4-M REDUCIDA;SALAMANCA ;MARIA DE MOLINA;CALLE;54;ESQ. PRINC. VERGARA;AVDA. AMERICA;MARIA DE MOLINA, CALLE Nº54 ESQ. PRINC. VERGARA AVDA. AMERICA;442446;4476730;SI;12/N4/;442336,5705;4476522,497;-3.679889;40.43735
793;;MARQUESINA MOD XXI 5-M REDUCIDA ;SALAMANCA ;MARIA DE MOLINA;CALLE;42;ESQ C/ VELAZQUEZ;AV AMERICA;MARIA DE MOLINA, CALLE Nº42 ESQ C/ VELAZQUEZ AV AMERICA;442228;4476748;SI;12/N4/;442118,5715;4476540,5;-3.682461;40.437497
794;;MARQUESINA MOD XXI 5-M REDUCIDA ;CHAMARTIN ;CASTELLANA;Pº;70;(LATERAL) C/ MARIA DE MOLINA;PZA CASTILLA;CASTELLANA, Pº Nº70 (LATERAL) C/ MARIA DE MOLINA PZA CASTILLA;441569;4476857;SI;12/45/;441459,5758;4476649,509;-3.690241;40.438432
795;;MARQUESINA MOD XXI 5-M REDUCIDA ;CHAMARTIN ;CASTELLANA;Pº;;ESQ C/ PEDRO VALDIVIA;PZA CASTILLA;CASTELLANA, Pº Nº0 ESQ C/ PEDRO VALDIVIA - PZA CASTILLA;441497;4477080;SI;12/45/CT/;441387,5786;4476872,511;-3.69111;40.440436
799;;MARQUESINA MOD XXI 4-M STD;CHAMBERI ;JUAN ZORRILLA;PZA;;FRT AL Nº 2;AV DE FILIPINAS;JUAN ZORRILLA, PZA Nº FRT AL Nº 2 AV DE FILIPINAS;440352;4477277;SI;12/;440242,5868;4477069,527;-3.704629;40.44213
805;;MARQUESINA MOD XXI 4-M REDUCIDA;CHAMBERI ;CEA BERMUDEZ;CALLE;41;ESQ GUZMAN EL BUENO;C/ JOSE ABASCAL;CEA BERMUDEZ, CALLE Nº41 ESQ GUZMAN EL BUENO C/ JOSE ABASCAL;439680,04;4476917,519;SI;12/;439570,6264;4476710,052;-3.712517;40.438843
806;;MARQUESINA MOD XXI 4-M STD;CHAMBERI ;CEA BERMUDEZ;CALLE;13;ANT C/ VALLEHERMOSO;C / JOSE ABASCAL;CEA BERMUDEZ, CALLE Nº13 ANTES C/ VALLEHERMOSO C / JOSE ABASCAL;439996;4476897;SI;12/;439886,5845;4476689,529;-3.70879;40.438681
807;;MARQUESINA MOD XXI 5-M STD;CHAMBERI ;JOSE ABASCAL;CALLE;2;ESQ C/ BRAVO MURILLO;Pº DE LA CASTELLANA;JOSE ABASCAL, CALLE Nº2 ESQ C/ BRAVO MURILLO Pº DE LA CASTELLANA;440427;4476875;SI;3/12/;440317,582;4476667,523;-3.703707;40.438514
808;;MARQUESINA MOD XXI 5-M STD;CHAMBERI ;JOSE ABASCAL;CALLE;10;ESQ C/ SANTA ENGRACIA;Pº DE LA CASTELLANA;JOSE ABASCAL, CALLE Nº10 ESQ C/ SANTA ENGRACIA Pº DE LA CASTELLANA;440686;4476858;SI;12/;440576,5805;4476650,52;-3.700651;40.438379
809;;MARQUESINA MOD XXI 5-M STD;CHAMBERI ;JOSE ABASCAL;CALLE;32;DESP. C/MODESTO LAFUENTE;Pº CASTELLANA;JOSE ABASCAL, CALLE Nº32 DESP. C/MODESTO LAFUENTE Pº CASTELLANA;441091;4476832;SI;12/;440981,5781;4476624,515;-3.695874;40.438174
810;;MARQUESINA MOD XXI 5-M STD;CHAMBERI ;JOSE ABASCAL;CALLE;58;ESQ C/ MIGUEL ANGEL;Pº CASTELLANA;JOSE ABASCAL, CALLE Nº58 ESQ C/ MIGUEL ANGEL Pº CASTELLANA;441430,329;4476806,45;SI;12/;441320,905;4476598,961;-3.691871;40.437967
814;;MARQUESINA MOD XXI 5-M STD;RETIRO ;MENENDEZ PELAYO;AV;;FTE Nº 47 (2ª MARQ);PZA MARIANO DE CAVIA;MENENDEZ PELAYO, AV FTE Nº 47 (2ª MARQ) - PZA MARIANO DE CAVIA;442554;4474445;SI;20/26/63/152/C1/;442444,5458;4474237,483;-3.67841;40.416773
816;;MARQUESINA MOD XXI 5-M REDUCIDA;RETIRO ;MENENDEZ PELAYO;AV;;FTE Nº 65;PZA MARIANO DE CAVIA;MENENDEZ PELAYO, AV FTE Nº 65 - PZA MARIANO DE CAVIA;442625;4474174;SI;20/26/63/152/C1/;442515,5426;4473966,481;-3.677548;40.414336
819;;MARQUESINA MOD XXI 4-M STD;RETIRO ;NIÑO JESUS (DEL);PZA;1;ANT MENENDEZ PELAYO;C/MENENDEZ PELAYO;NIÑO JESUS (DEL), PZA Nº1 ANTES MENENDEZ PELAYO C/MENENDEZ PELAYO;442821,791;4473813,107;SI;20/;442712,3292;4473605,583;-3.675196;40.411098
821;;MARQUESINA MOD XXI 4-M STD;RETIRO ;NAZARET (DE);AV;;FTE. Nº 10;AV MENENDEZ PELAYO;NAZARET (DE), AV FTE. Nº 10 - AV MENENDEZ PELAYO;443203;4473856;SI;20/;443093,5374;4473648,471;-3.670708;40.411511
823;;MARQUESINA MOD XXI 4-M REDUCIDA;RETIRO ;ASTROS (DE LOS);CALLE;5;CRUZ DEL SUR (1ª MARQ);DOCTOR ESQUERDO;ASTROS (DE LOS), CALLE Nº5 CRUZ DEL SUR (1ª MARQ) DOCTOR ESQUERDO;443387;4473852;SI;REFUGIO;443277,5368;4473644,468;-3.668539;40.411487
825;;MARQUESINA MOD XXI 4-M STD;RETIRO ;ESTRELLA POLAR;CALLE;13;ESQ PEZ AUSTRAL;DR.ESQUERDO;ESTRELLA POLAR, CALLE Nº13 ESQ PEZ AUSTRAL DR.ESQUERDO;443650;4473823;SI;20/30/32/N8/;443540,5356;4473615,464;-3.665437;40.411244
826;;MARQUESINA MOD XXI 5-M STD;MORATALAZ ;VINATEROS;Cº;;FTE ALCAMPO (2ª MARQ);C/ PICO ARTILLEROS;VINATEROS, CAMINO Nº0 FTE ALCAMPO (2ª MARQ) - C/ PICO DE LOS ARTILLEROS;444098;4473749;SI;20/30/32/N8/;443988,5334;4473541,457;-3.66015;40.410608
829;;MARQUESINA MOD XXI 5-M STD;MORATALAZ ;CORREGIDOR DIEGO VALDERRABANOS;AV;;FTE C/LITUANIA;C/FELIX RODRIGUEZ DE;CORREGIDOR DIEGO VALDERRABANOS Nº0 FRT C/LITUANIA C/FELIX RODRIGUEZ DE;444107;4473598;SI;20/;443997,5318;4473390,457;-3.660031;40.409248
831;;MARQUESINA MOD XXI 4-M REDUCIDA;MORATALAZ ;MORATALAZ;AV;13;ESQ C/CORREJIDOR RODRIGO RODRIGUEZ;C/CORREGIDOR DIEGO V;MORATALAZ, AV Nº13 ESQ C/CORREJIDOR RODRIGO RODRIGUEZ C/CORREGIDOR DIEGO V;444054;4473430;SI;20/;443944,5302;4473222,456;-3.660641;40.407731
835;;MARQUESINA MOD XXI 4-M STD;MORATALAZ ;MORATALAZ;AV;93;C/ CORREG. DIEGO VALDERRABANO; ;MORATALAZ, AV Nº93 C/ CORREG. DIEGO VALDERRABANO -;444526,436;4473267,389;SI;8/20/;444416,963;4473059,838;-3.655059;40.406298
837;;MARQUESINA MOD XXI 5-M STD;MORATALAZ ;HACIENDA DE PAVONES;CALLE;8;-;BULEVAR JOSÉ PRAT;HACIENDA DE PAVONES, CALLE Nº8 - BULEVAR JOSÉ PRAT;445061;4473042;SI;20/30/100/N8/;444951,523;4472834,44;-3.64874;40.404303
839;;MARQUESINA MOD XXI 5-M STD;MORATALAZ ;HACIENDA DE PAVONES;CALLE;93;ESQ DE LA CAÑADA;PZA DEL ENCUENTRO;HACIENDA DE PAVONES, CALLE Nº93 ESQ DE LA CAÑADA PZA DEL ENCUENTRO;445320;4472974;SI;20/30/100/N8/;445210,5215;4472766,436;-3.645682;40.403707
841;;MARQUESINA MOD XXI 5-M STD;MORATALAZ ;CORREGIDOR CONDE MACEDA;PZA;;ESQ.HACIENDA PAVONES;HACIEND.PAVONES;CORREGIDOR CONDE MACEDA, PZA Nº0 ESQ.HACIENDA PAVONES HACIEND.PAVONES;445518;4472929;SI;20/30/N8/;445408,5205;4472721,433;-3.643345;40.403315
842;;MARQUESINA MOD XXI 5-M STD;MORATALAZ ;HACIENDA DE PAVONES;CALLE;117;ESQ PZA CORREG. CONDE MACEDA Y TABOADA;PZA DEL ENCUENTRO;HACIENDA DE PAVONES, CALLE Nº117 ESQ PZA CORREG. CONDE MACEDA Y TABOADA PZA DEL ENCUENTRO;445595;4472876;SI;71/100/;445485,5197;4472668,432;-3.642433;40.402842
844;;MARQUESINA MOD XXI 4-M REDUCIDA;MORATALAZ ;ENCOMIENDA DE PALACIOS;CALLE;;ESQ C/ ARROYO DE FONTARRON;ARROYO FONTARRO;ENCOMIENDA DE PALACIOS, CALLE Nº0 ESQ C/ ARROYO DE FONTARRON ARROYO FONTARRO;445195;4472623;SI;8/20/;445085,5183;4472415,436;-3.647125;40.400537
858;;MARQUESINA MOD XXI 4-M STD;MONCLOA-ARAVACA ;FLORIDA (DE LA);Pº;16;-;AV. VALLADOLID;FLORIDA (DE LA), Pº Nº16 - AV. VALLADOLID;438762;4475186;SI;41/46/75/;438652,5722;4474978,534;-3.723174;40.423177
861;;MARQUESINA MOD XXI 5-M STD;MONCLOA-ARAVACA ;FLORIDA (DE LA);Pº;55;DESP. GTA SAN ANTONIO FLORIDA;GTA SAN VICENTE;FLORIDA (DE LA), Pº Nº55 DESP. GTA SAN ANTONIO FLORIDA GTA SAN VICENTE;438577;4475337;SI;41/46/75/N20/;438467,5748;4475129,537;-3.725369;40.424524
867;;MARQUESINA MOD XXI 5-M STD;MONCLOA-ARAVACA ;RIBERA DEL MANZANARES;CALLE;;FTE Nº 149;C/ SANTA FE;RIBERA DEL MANZANARES, CALLE  FTE Nº 149 C/ SANTA FE;437770;4476069;SI;41/75/;437660,5871;4475861,551;-3.734953;40.431058
870;;MARQUESINA MOD XXI 5-M REDUCIDA;MONCLOA-ARAVACA ;SAN POL DE MAR;CALLE;;FTE  Nº 4;Pº FLORIDA;SAN POL DE MAR, CALLE Nº0 FTE  Nº 4 Pº FLORIDA;438422,156;4475296,138;SI;41/75/;438312,7312;4475088,677;-3.72719;40.424144
872;10902;MARQUESINA MOD XXI 4-M REDUCIDA;LATINA ;EXTREMADURA;Pº;5;FTE Nº6;M-30;EXTREMADURA, Pº Nº5 FRENTE Nº6 M-30;438557,8222;4474155,916;SI;31/33/36/39/65/138/----N18/N19/500/;438448,3841;4473948,447;-3.725481;40.413883
874;;MARQUESINA MOD XXI 4-M STD;LATINA ;PUERTA DEL ANGEL;PZA;31;ANT C/ANTILLON (2ª MQ);PUENTE SEGOVIA;PUERTA DEL ANGEL, PZA Nº31 ANTES C/ANTILLON (2ª MQ) PUENTE SEGOVIA;438298,0036;4474111,848;SI;31/36/65/;438188,5664;4473904,382;-3.728539;40.413467
876;;MARQUESINA MOD XXI 4-M REDUCIDA;LATINA ;EXTREMADURA;Pº;65;ESQ C/ GUADARRAMA (2ª MARQ);M-30;EXTREMADURA, Pº Nº65 ESQ C/ GUADARRAMA (2ª MARQUESINA) M-30;437987,6728;4473971,715;SI;31/33/36/39/65/N19/;437878,2356;4473764,251;-3.732183;40.412181
878;;MARQUESINA MOD XXI 5-M STD;LATINA ;EXTREMADURA;Pº;125;ESQ C/ MILAGROSA;M - 30;EXTREMADURA, Pº Nº125 ESQ C/ MILAGROSA M - 30;437639;4473806;SI;31/33/36/39/65/N19/;437529,5627;4473598,54;-3.736276;40.410662
880;;MARQUESINA MOD XXI 4-M ESTRECHA CON LUMINARIA;LATINA ;EXTREMADURA;Pº;147;-;C/ SEGOVIA;EXTREMADURA, Pº Nº147 - C/ SEGOVIA;437376;4473682;SI;31/33/36/39/65/N19/;437266,5627;4473474,543;-3.739363;40.409525
882;;MARQUESINA MOD XXI 5-M STD;LATINA ;EXTREMADURA;Pº;218;-;EXTREMADURA;EXTREMADURA, Pº Nº218 -  EXTREMADURA;436626;4473362;SI;36/39/65/N19/;436516,5643;4473154,549;-3.74817;40.406586
884;;MARQUESINA MOD XXI 5-M REDUCIDA ;LATINA ;EXTREMADURA;Pº;250;-;EXTREMADURA;EXTREMADURA, Pº Nº250 - EXTREMADURA;436320;4473218;SI;36/39/65/N19/;436210,5649;4473010,551;-3.751761;40.405265
885;;MARQUESINA MOD XXI 5-M STD;LATINA ;EXTREMADURA;Pº;;C/ CARLINA (2ª MARQ);M-30;EXTREMADURA, Pº Nº0 C/ CARLINA (2ª MARQ) M-30;436334,5494;4473188,169;SI;36/39/N19/------511/512/513/514/516/518/521/522/523/524/534/539/-----528/538/541/545/546/547/548/551/581/N501/N502/N503/N504/N505/;436225,1138;4472980,719;-3.751587;40.404998
889;;MARQUESINA MOD XXI 5-M STD;LATINA ;EXTREMADURA;Pº;;ENTRADA BATAN;M-30;EXTREMADURA, Pº Nº0 ENTRADA BATAN M-30;435677;4472877;SI;36/39/N19/;435567,5656;4472669,555;-3.759304;40.402144
891;;MARQUESINA MOD XXI 5-M STD;LATINA ;EXTREMADURA;Pº;;JTO HIDROELECTRICA;M-30;EXTREMADURA, Pº Nº0 JTO HIDROELECTRICA M-30;435321,056;4472632,005;SI;36/39/;435211,6214;4472424,563;-3.763473;40.399909
892;;MARQUESINA MOD XXI 5-M STD;LATINA ;EXTREMADURA;Pº;324;ESQ C/ CARABIAS;CTRA EXTREMADUR;EXTREMADURA, Pº Nº324 ESQ C/ CARABIAS CTRA EXTREMADUR;434862,243;4472225,865;SI;36/39/N19/495/511/512/513/------514/516/518/521/522/523/524/528/538/534/539/541/547/548/------545/546/551/573/581/N501/N502/N503/N504/N905/;434752,8071;4472018,425;-3.768838;40.396215
893;;MARQUESINA MOD XXI 5-M STD;LATINA ;EXTREMADURA;Pº;;ESQ. PADRE PIQUER (2ª MARQ);M-30;EXTREMADURA, Pº Nº0 ESQ. PADRE PIQUER (2ª MARQ) M-30;434877,482;4472197,772;SI;39/N19/------495/511/512/513/514/516/521/522/523/524/534/------528/538/539/541/545/546/547/548/551/581/N501/N502/N503/N504/N505/N808/;434768,0457;4471990,331;-3.768655;40.395963
906;;MARQUESINA MOD XXI 5-M STD;LATINA ;SOLEDAD CAZORLA ;CALLE;;FTE Nº 18;ALDEANUEVA VERA;SOLEDAD CAZORLA CALLE  FTE. Nº 18 ALDEANUEVA VERA;434477;4470047;SI;39/;434367,5407;4469839,552;-3.773153;40.376557
907;;MARQUESINA MOD XXI 5-M REDUCIDA ;LATINA ;SOLEDAD CAZORLA;CALLE;;FTE Nº 2;ALDEANUEVA VERA;SOLEDAD CAZORLA CALLE  FTE. Nº 2 ALDEANUEVA VERA;434252;4470094;SI;39/;434142,5429;4469886,555;-3.775808;40.376962
909;;MARQUESINA MOD XXI 4-M STD;LATINA ;AVIACION;AV;;PROX. ACCESO N-V;CTRA. EXTREMADURA;AVIACION, AV Nº0 PROX. ACCESO N-V CTRA. EXTREMADURA;433423;4470522;SI;39/N19/;433313,554;4470314,565;-3.785617;40.380752
910;;MARQUESINA MOD XXI 5-M REDUCIDA ;LATINA ;EXTREMADURA;Pº;;ESQ. FUENTE DE LIMA;M-30;EXTREMADURA, Pº Nº0 ESQ. FUENTE DE LIMA M-30;433565;4470890;SI;39/N19/560/;433455,5577;4470682,565;-3.783983;40.384078
911;;MARQUESINA MOD XXI 4-M STD;LATINA ;EXTREMADURA;Pº;157;POX. C/HUERTA DE CASTAÑEDA;M-30;EXTREMADURA, Pº Nº157 POX. C/HUERTA DE CASTAÑEDA M-30;437123;4473558;SI;33/36/39/65/N19/;437013,5629;4473350,545;-3.742332;40.408389
914;;MARQUESINA MOD XXI 5-M STD;ARGANZUELA ;TOLEDO;CALLE;140;PROX. C/SANTA CASILDA;GTA PIRAMIDES;TOLEDO, CALLE Nº140 PROX. C/SANTA CASILDA GTA PIRAMIDES;439588;4473043;SI;18/23/35/N26/;439478,5446;4472835,512;-3.713234;40.403932
915;;MARQUESINA MOD XXI 5-M STD;ARGANZUELA ;TOLEDO;CALLE;143;ESQ C/ SAN ISIDRO DE SEVILLA;PZA MAYOR;TOLEDO, CALLE Nº143 ESQ C/ SAN ISIDRO DE SEVILLA PZA MAYOR;439649,832;4473079,033;SI;18/23/35/N26/;439540,3767;4472871,545;-3.712509;40.404262
917;;MARQUESINA MOD XXI 5-M STD;ARGANZUELA ;TOLEDO;CALLE;;ESQ GTA. PIRAMIDES;PUERTA TOLEDO;TOLEDO, CALLE Nº0 ESQ GTA. PIRAMIDES PUERTA TOLEDO;439536,533;4472778,01;SI;18/23/35/N26/CT/;439427,0749;4472570,521;-3.713815;40.401542
918;;MARQUESINA MOD XXI 4-M STD;CARABANCHEL ;ANTONIO LOPEZ;CALLE;4;DESP. GTA MARQUES DE VADILLO;AV CORDOBA;ANTONIO LOPEZ, CALLE Nº4 DESP. GTA MARQUES DE VADILLO AV CORDOBA;439441,032;4472303,816;SI;23/N15/;439331,5692;4472096,326;-3.714896;40.397263
919;;MARQUESINA MOD XXI 4-M STD;CARABANCHEL ;ANTONIO LOPEZ;CALLE;;FTE Nº 4;GTA MARQUES VADILLO;ANTONIO LOPEZ, CALLE Nº0 FTE Nº 4 GTA MARQUES VADILLO;439472;4472308;SI;23/N15/;439362,5371;4472100,51;-3.714531;40.397303
920;;MARQUESINA MOD XXI 4-M STD;CARABANCHEL ;ANTONIO LOPEZ;CALLE;42;FTE C/ TOMASA RUIZ;AV ANDALUCIA;ANTONIO LOPEZ, CALLE Nº42 FTE C/ TOMASA RUIZ AV ANDALUCIA;439735;4472116;SI;23/N15/;439625,5337;4471908,505;-3.711414;40.395592
923;;MARQUESINA MOD XXI 4-M STD;CARABANCHEL ;ANTONIO LOPEZ;CALLE;65;ESQ C/ SAN DAVID;GTA MARQUES VADILLO;ANTONIO LOPEZ, CALLE Nº65 ESQ C/ SAN DAVID GTA MARQUES VADILLO;440034;4471955;SI;23/N15/;439924,5305;4471747,501;-3.707876;40.394163
924;;MARQUESINA MOD XXI 5-M STD;USERA ;ANTONIO LOPEZ;CALLE;134;-;AV ANDALUCIA;ANTONIO LOPEZ, CALLE Nº134 - AV ANDALUCIA;440386,097;4471670,33;SI;23/N15/;440276,6227;4471462,825;-3.703701;40.391624
926;;MARQUESINA MOD XXI 5-M STD;USERA ;ANTONIO LOPEZ;CALLE;150;ESQ C/ MATILDE GAYO;AV ANDALUCIA;ANTONIO LOPEZ, CALLE Nº150 ESQ C/ MATILDE GAYO AV ANDALUCIA;440536,795;4471500,676;SI;23/;440427,3181;4471293,168;-3.70191;40.390107
931;;MARQUESINA MOD XXI 4-M STD;USERA ;ANTONIO LOPEZ;CALLE;151;ESQ C/ SAN SERAPIO;GTA CADIZ;ANTONIO LOPEZ, CALLE Nº151 ESQ C/ SAN SERAPIO GTA CADIZ;440842,819;4471193,899;SI;23/123/N12/;440733,3373;4470986,386;-3.698276;40.387365
944;;MARQUESINA MOD XXI 4-M STD;USERA ;ESTAFETA;CALLE;;ESQ AV SAN FERMIN;C/ANTONIO LOPEZ;ESTAFETA, CALLE Nº0 ESQ AV SAN FERMIN C/ANTONIO LOPEZ;441352,1832;4469429,721;SI;23/78/123/N12/;441242,6791;4469222,195;-3.692112;40.371508
945;;MARQUESINA MOD XXI 4-M STD;USERA ;SAN MARTIN DE LA VEGA;GTA;;ESQ C/ MOTRIL;C/ ANTEQUERA;SAN MARTIN DE LA VEGA, GTA Nº0 ESQ C/ MOTRIL C/ ANTEQUERA;441398,24;4469041,399;SI;23/78/123/N12/;441288,7313;4468833,87;-3.691534;40.368013
950;;MARQUESINA MOD XXI 5-M REDUCIDA;RETIRO ;O'DONNELL;CALLE;;ESQ C/ SALIENTE;M-30;O'DONNELL, CALLE Nº0 ESQ C/ SALIENTE M-30;443604,4716;4474828,466;SI;28/71/;443495,0179;4474620,937;-3.666062;40.420299
956;;MARQUESINA MOD XXI 5-M STD;CIUDAD LINEAL ;POETA BLAS DE OTERO;CALLE;;JTO COLEGIO NTRA SRA DE LA MERCED;AV MARQUES D CORBERA;POETA BLAS DE OTERO, CALLE  JTO COLEGIO NTRA SRA DE LA MERCED AV MARQUES DE CORBERA;444530,926;4475002,433;SI;71/;444421,4709;4474794,89;-3.655158;40.421928
959;;MARQUESINA MOD XXI 5-M STD;CIUDAD LINEAL ;MARQUES DE CORBERA;AV;3;ESQ C/  RICARDO ORTIZ;C/ O'DONNELL;MARQUES DE CORBERA, AV Nº3 ESQ C/  RICARDO ORTIZ C/ O'DONNELL;444454;4475114;SI;REFUGIO;444344,5464;4474906,459;-3.656074;40.422928
961;;MARQUESINA MOD XXI 5-M REDUCIDA ;CIUDAD LINEAL ;MARQUES DE CORBERA;AV;27;ESQ C/ MONTEGURRA A 10 M.;C/ O'DONNELL;MARQUES DE CORBERA, AV Nº27 ESQ C/ MONTEGURRA A 10 M. C/ O'DONNELL;444636;4475287;SI;REFUGIO;444526,5475;4475079,458;-3.653944;40.424499
962;;MARQUESINA MOD XXI 5-M STD;CIUDAD LINEAL ;MARQUES DE CORBERA;AV;48;C/ Mª TERESA SAINZ 20MTS;C/ FCO. VILLAESPESA;MARQUES DE CORBERA, AV Nº48 C/ Mª TERESA SAINZ 20MTS C/ FCO. VILLAESPESA;444832,55;4475424,577;SI;15/28/110/210/N6/;444723,0983;4475217,033;-3.651639;40.425751
963;;MARQUESINA MOD XXI 5-M REDUCIDA ;CIUDAD LINEAL ;MARQUES DE CORBERA;AV;49;ESQ C/ GERARDO CORDON 15 M;C/ O'DONNELL;MARQUES DE CORBERA, AV Nº49 ESQ C/ GERARDO CORDON 15 M C/ O'DONNELL;444813;4475451;SI;REFUGIO;444703,5486;4475243,456;-3.651872;40.425988
965;;MARQUESINA MOD XXI 5-M STD;CIUDAD LINEAL ;MARQUES DE CORBERA;AV;61;1º MARQUESINA;C/ O'DONNELL;MARQUES DE CORBERA, AV Nº61 1º MARQUESINA C/ O'DONNELL;444913;4475547;SI;REFUGIO;444803,5492;4475339,455;-3.650701;40.426859
966;;MARQUESINA MOD XXI 5-M STD;CIUDAD LINEAL ;MARQUES DE CORBERA;AV;;JTO PUENTE AV DAROCA;C/ FCO. VILLAESPESA;MARQUES DE CORBERA, AV Nº0 JTO PUENTE AV DAROCA C/ FCO. VILLAESPESA;445069,174;4475703,946;SI;28/113/N6/;444959,7243;4475496,4;-3.648874;40.428284
968;;MARQUESINA MOD XXI 4-M STD;CIUDAD LINEAL ;FRANCISCO VILLAESPESA;CALLE;8;ESQ. C/LAGO CONSTANZA;C/ASCAO;FRANCISCO VILLAESPESA, CALLE Nº8 ESQ. C/LAGO CONSTANZA C/ASCAO;445304;4475776;SI;28/N6/;445194,5502;4475568,451;-3.646112;40.428948
975;;MARQUESINA MOD XXI 4-M REDUCIDA;CIUDAD LINEAL ;ASCAO;CALLE;51;ESQ C/ LUIS RUIZ;FCO.VILLAESPESA;ASCAO, CALLE Nº51 ESQ C/ LUIS RUIZ FCO.VILLAESPESA;445965;4476043;SI;28/N6/;445855,5506;4475835,443;-3.638342;40.431397
976;;MARQUESINA MOD XXI 4-M STD;CIUDAD LINEAL ;BRAULIO GUTIERREZ;CALLE;;JTO C/ LUIS RUIZ;AV. AV. HERMANOS GARCIA NOBLEJAS;BRAULIO GUTIERREZ, CALLE Nº0 JTO C/ LUIS RUIZ AV. HERMANOS GARCIA NOBLEJAS;446099,375;4475785,5;SI;28/N6/;445989,9225;4475577,939;-3.636736;40.429086
977;;MARQUESINA MOD XXI 5-M STD;CIUDAD LINEAL ;BRAULIO GUTIERREZ;CALLE;;ESQ C/ JOSE ARCONES GIL;AV. AV. HERMANOS GARCIA NOBLEJAS;BRAULIO GUTIERREZ, CALLE Nº0 ESQ C/ JOSE ARCONES GIL  AV. HERMANOS GARCIA NOBLEJAS;446308;4475800;SI;28/N6/;446198,5469;4475592,436;-3.634278;40.42923
978;7195;MARQUESINA MOD XXI 5-M REDUCIDA;SAN BLAS ;EMILIO MUÑOZ;CALLE;2;AV. HERMANOS GARCIA NOBLEJAS;PZA CRONOS;EMILIO MUÑOZ, CALLE Nº2 ESQ AV. HERMANOS GARCIA NOBLEJAS PZA CRONOS;446545;4475913;SI;28/286/288/289/;446435,5472;4475705,434;-3.631494;40.430263
983;17963;MARQUESINA MOD XXI 4-M STD;SAN BLAS ;EMILIO MUÑOZ;CALLE;43;ESQ C/ ALFONSO GOMEZ;AV. HERMANOS GARCIA NOBLEJAS;EMILIO MUÑOZ, CALLE Nº43 ESQ C/ ALFONSO GOMEZ HERMANOS GARCIA NOBLEJAS;447070;4476245;SI;28/286/288/289/;446960,5498;4476037,427;-3.625332;40.433288
984;7080;MARQUESINA MOD XXI 4-M STD;SAN BLAS ;EMILIO MUÑOZ;CALLE;;ESQ C/ CASTILLO DE UCLES;C/ CRONOS;EMILIO MUÑOZ, CALLE Nº0 ESQ C/ CASTILLO DE UCLES C/ CRONOS;447262;4476337;SI;28/286/288/289/;447152,5507;4476129,425;-3.623077;40.434129
987;;MARQUESINA MOD XXI 4-M STD;SAN BLAS ;CRONOS;CALLE;;DESP C/ JULIAN CAMARILLO;C/ EMILIO MUÑOZ;CRONOS, CALLE DESP C/ JULIAN CAMARILLO (2ª MARQ) -  C/ EMILIO MUÑOZ;447481;4476642;SI;28/153/;447371,5538;4476434,423;-3.62052;40.43689
993;;MARQUESINA MOD XXI 5-M STD;SAN BLAS ;SAN MARIANO;CALLE;;FTE Nº 58;C/ ALCALA;SAN MARIANO, CALLE Nº0 FTE Nº 58 C/ ALCALA;448218;4477180;SI;28/48/N5/;448108,5592;4476972,414;-3.611875;40.441783
1003;;MARQUESINA MOD XXI 5-M REDUCIDA;PUENTE VALLECAS ;ALBUFERA;AV;76;DESP. C/ PUERTO PAJARES;VILLA DE VALLECAS;ALBUFERA, AV Nº76 DESP. C/ PUERTO PAJARES VILLA DE VALLECAS;443822;4472024;SI;54/57/58/136/N10/N25/;443712,5163;4471816,452;-3.663251;40.395049
1005;;MARQUESINA MOD XXI 5-M REDUCIDA;PUENTE VALLECAS ;ALBUFERA;AV;102;DESP. C/ PICO DE ALBA;VILLA DE VALLECAS;ALBUFERA, AV Nº102 DESP. C/ PICO DE ALBA VILLA DE VALLECAS;444016;4471891;SI;54/58/136/N25/;443906,5143;4471683,449;-3.660953;40.393864
1008;;MARQUESINA MOD XXI 5-M STD;PUENTE VALLECAS ;ALBUFERA;AV;143;FTE ESTADIO VALLECAS;CDAD. BARCELONA;ALBUFERA, AV Nº143 FTE ESTADIO VALLECAS CDAD. BARCELONA;444267,7748;4471734,81;SI;54/58/103/136/N10/N25/;444158,2868;4471527,254;-3.657973;40.392474
1012;;MARQUESINA MOD XXI 5-M REDUCIDA ;PUENTE VALLECAS ;ALBUFERA;AV;;ESQ C/ PIO FELIPE 200 MTS;CDAD. BARCELONA;ALBUFERA, AV Nº0 ESQ C/ PIO FELIPE 200 MTS CDAD. BARCELONA;444823;4471614;SI;58/103/143/;444713,5091;4471406,436;-3.651421;40.391423
1014;;MARQUESINA MOD XXI 5-M STD;PUENTE VALLECAS ;ALBUFERA;AV;;JTO.C/ SANTILLANA DEL MAR Nº 15 (2ºMARQ);CIUDAD DE BARCELONA;ALBUFERA, AV Nº0 JTO.C/ SANTILLANA DEL MAR Nº 15 (2ºMARQ) CIUDAD DE BARCELONA;445304,2358;4471486,448;SI;58/103/143/N25/;445194,7422;4471278,877;-3.64574;40.390305
1015;;MARQUESINA MOD XXI 4-M STD;PUENTE VALLECAS ;ALBUFERA;AV;252;COLONIA VILLOTA;AV DEMOCRACIA;ALBUFERA, AV Nº252 COLONIA VILLOTA AV DEMOCRACIA;445535,761;4471283,959;SI;58/103/142/143/N25/;445426,2647;4471076,383;-3.642995;40.388496
1018;;MARQUESINA MOD XXI 5-M STD;PUENTE VALLECAS ;ALBUFERA;AV;;ESQ AV RAFAEL ALBERTI;CIUDAD DE BARCELONA;ALBUFERA, AV Nº0 ESQ AV RAFAEL ALBERTI CIUDAD DE BARCELONA;445809;4471153;SI;54/58/103/142/143/N25/;445699,5016;4470945,42;-3.639765;40.387334
1019;;MARQUESINA MOD XXI 5-M STD;PUENTE VALLECAS ;ALBUFERA;AV;;ANTES Nº 300;AV DEMOCRACIA;ALBUFERA, AV Nº0 ANTES Nº 300 AV DEMOCRACIA;445965;4471025;SI;54/58/103/142/143/N25/;445855,4998;4470817,417;-3.637916;40.386191
1021;;MARQUESINA MOD XXI 4-M STD;FUENCARRAL ;MONASTERIO DE SILOS;AV;;DESP.C/MONASTERIO DE CAAVEIRO;MONASTERIO EL ESCORI;MONASTERIO DE SILOS, AV. Nº0 DESP.C/MONASTERIO DE CAAVEIRO MONASTERIO EL ESCORI;441134,781;4484220,32;SI;134/178/N23/;441025,4243;4484012,875;-3.696044;40.504734
1024;;MARQUESINA MOD XXI 5-M STD;PUENTE VALLECAS ;ALBUFERA;AV;323;FTE. COCHERON DE LA VILLA;AV CIUDAD BARCELONA;ALBUFERA, AV Nº323 FTE. COCHERON DE LA VILLA AV CIUDAD BARCELONA;446632,7772;4470679,306;SI;58/103/142/143/N25/;446523,2717;4470471,713;-3.63002;40.38312
1028;;MARQUESINA MOD XXI 4-M STD;FUENCARRAL ;MONASTERIO DEL ESCORIAL;AV;;DESP C/MONASTERIO DE LIEBANA;AV.SANTUARIO DE VALV;MONASTERIO DEL ESCORIAL, AV. Nº DESP C/MONASTERIO DE LIEBANA AV.SANTUARIO DE VALV;441178,652;4484501,994;SI;134/178/N23/;441069,2973;4484294,549;-3.695552;40.507275
1029;;MARQUESINA MOD XXI 4-M STD;FUENCARRAL ;MONASTERIO DEL ESCORIAL;AV;;ANTES C/MONASTERIO DE CAAVEIRO;AV.SANTUARIO DE VALV;MONASTERIO DEL ESCORIAL, AV. Nº ANT C/MONASTERIO DE CAAVEIRO AV.SANTUARIO DE VALV;441047,0572;4484310,399;SI;134/178/N23/;440937,7017;4484102,955;-3.697088;40.505539
1032;;MARQUESINA MOD XXI 4-M STD;VILLA DE VALLECAS ;REAL DE ARGANDA;CALLE;40;ESQ C/ SIERRA DE GOR;CTRA VALENCIA;REAL DE ARGANDA, CALLE Nº40 ESQ C/ SIERRA DE GOR CTRA VALENCIA;447683;4470260;SI;58/N9/;447573,4902;4470052,389;-3.617613;40.379409
1034;;MARQUESINA MOD XXI 4-M STD;VILLA DE VALLECAS ;ENRIQUE GARCIA ALVAREZ;CALLE;2;ESQ C/ REAL DE ARGANDA;ANTONIO SEGOVIA;ENRIQUE GARCIA ALVAREZ, CALLE Nº2 ESQ C/ REAL DE ARGANDA ANTONIO SEGOVIA;448022;4470352;SI;58/N9/;447912,4911;4470144,384;-3.613627;40.380259
1037;;MARQUESINA MOD XXI 5-M STD;VILLA DE VALLECAS ;ENRIQUE GARCIA ALVAREZ;CALLE;;FTE Nº 10;C/REAL DE ARGANDA;ENRIQUE GARCIA ALVAREZ, CALLE Nº0 FTE Nº 10 C/REAL DE ARGANDA;447919;4470539;SI;58/;447809,493;4470331,386;-3.614856;40.381938
1041;;MARQUESINA MOD XXI 4-M STD;VILLA DE VALLECAS ;MEDITERRANEO;AV;;ANT. C/ VIRGEN DE LAS VIÑAS;C/ FUENTESPINA;MEDITERRANEO, AV Nº0 ANT. C/ VIRGEN DE LAS VIÑAS C/ FUENTESPINA;448816;4470573;SI;58/63/;448706,4934;4470365,372;-3.604292;40.382299
1043;;MARQUESINA MOD XXI 4-M STD;VILLA DE VALLECAS ;FUENTESPINA;CALLE;14;ESQ AV STA EUGENIA;REAL DE ARGANDA;FUENTESPINA, CALLE Nº14 ESQ AV STA EUGENIA REAL DE ARGANDA;448516;4470237;SI;58/63/;448406,4901;4470029,376;-3.607799;40.379254
1044;;MARQUESINA MOD XXI 4-M STD;VILLA DE VALLECAS ;SANTA EUGENIA;AV;107;DESP C/ VIRGEN DE LAS VIÑAS;Cº DE VASARES;SANTA EUGENIA, AVD Nº107 DESP C/ VIRGEN DE LAS VIÑAS Cº DE VASARES;448378,8156;4470402,455;SI;58/63/;448269,3073;4470194,834;-3.609428;40.380736
1045;;MARQUESINA MOD XXI 4-M STD;VILLA DE VALLECAS ;SANTA EUGENIA;AV;47;ESQ C/ PUENTELARRA ENRIQUE GARCIA;ENRIQUE GARCIA;SANTA EUGENIA, AVD Nº47 ESQ C/ PUENTELARRA ENRIQUE GARCIA;448298;4470583;SI;58/63/;448188,4935;4470375,381;-3.610395;40.382358
1046;;MARQUESINA MOD XXI 5-M STD;VILLA DE VALLECAS ;SANTA EUGENIA;AV;;Nº 35-39;AV. SANTA EUGENIA;SANTA EUGENIA, AVD Nº0 Nº 35-39 AV. SANTA EUGENIA;448090,7462;4470767,925;SI;58/;447981,2415;4470560,31;-3.612851;40.384011
1051;;MARQUESINA MOD XXI 5-M STD;VILLA DE VALLECAS ;MONTES DE BARBANZA;CALLE;9;ESQ C/ PICO DE LA CIERVA;REAL DE ARGANDA;MONTES DE BARBANZA,CALLE Nº9 ESQ C/ PICO DE LA CIERVA REAL DE ARGANDA;447557,5168;4470081,945;SI;54/142/103/;447448,0052;4469874,336;-3.619077;40.377797
1053;;MARQUESINA MOD XXI 5-M STD;MORATALAZ ;HACIENDA DE PAVONES;CALLE;121;ENTRE LOS Nº 121 Y 169;PZA DEL ENCUENTRO;HACIENDA DE PAVONES, CALLE Nº121 ENTRE LOS Nº 121 Y 169 PZA DEL ENCUENTRO;445814;4472842;SI;71/100/;445704,5187;4472634,428;-3.63985;40.40255
1056;;MARQUESINA MOD XXI 5-M STD;MORATALAZ ;FUENTE CARRANTONA;CALLE;;ESQ C/ LUIS DE HOYOS SAINZ;SAN BLAS;FUENTE CARRANTONA, CALLE Nº0 ESQ C/ LUIS DE HOYOS SAINZ  SAN BLAS;446278;4472928;SI;100/140/E4/N8/;446168,5181;4472720,422;-3.634389;40.403355
1058;;MARQUESINA MOD XXI 4-M REDUCIDA;MORATALAZ ;FUENTE CARRANTONA;CALLE;;FRENTE Nº35;SAN BLAS;FUENTE CARRANTONA, CALLE Nº FTE Nº35 SAN BLAS;446540;4473343;SI;100/140/E4/;446430,5214;4473135,421;-3.631337;40.407111
1076;;MARQUESINA MOD XXI 4-M STD;VICALVARO ;CALAHORRA;CALLE;12;FTE. UNIVERSIDAD;Cº Vº VICALVARO;CALAHORRA, CALLE Nº12 FTE. UNIVERSIDAD Cº Vº VICALVARO;448251,1352;4473404,042;SI;4/106/130/N7/;448141,6568;4473196,436;-3.611176;40.407769
1077;;MARQUESINA MOD XXI 4-M STD;VICALVARO ;CALAHORRA;CALLE;112;ESQ AV DAROCA;Cº Vº VICALVARO;CALAHORRA, CALLE Nº112 ESQ AV DAROCA Cº Vº VICALVARO;448077;4473341;SI;130/;447967,5209;4473133,397;-3.613223;40.40719
1078;;MARQUESINA MOD XXI 4-M STD;CIUDAD LINEAL ;DAROCA;AV;;ESQ C/ RICARDO ORTIZ;VICALVARO;DAROCA, AV Nº0 ESQ C/ RICARDO ORTIZ VICALVARO;444298;4475979;SI;106/110/210/N7/;444188,5559;4475771,466;-3.657989;40.43071
1081;;MARQUESINA MOD XXI 5-M STD;CIUDAD LINEAL ;DAROCA;AV;81;-;C/ ALCALA;DAROCA, AV Nº81 - C/ ALCALA;445140,0242;4475633,024;SI;106/N7/;445030,5735;4475425,477;-3.648032;40.427649
1082;;MARQUESINA MOD XXI 5-M REDUCIDA ;CIUDAD LINEAL ;DAROCA;AV;90;FTE C/ LAGO CONSTANZA;VICALVARO;DAROCA, AV Nº90 FTE C/ LAGO CONSTANZA VICALVARO;445404;4475442;SI;106/N7/;445294,5464;4475234,448;-3.644904;40.425946
1083;;MARQUESINA MOD XXI 5-M REDUCIDA ;CIUDAD LINEAL ;DAROCA;AV;;FTE Nº 90;C/ ALCALA;DAROCA, AV Nº0 FTE Nº 90 C/ ALCALA;445390,024;4475483,505;SI;106/N7/;445280,5709;4475275,953;-3.645073;40.426319
1084;;MARQUESINA MOD XXI 4-M STD;CIUDAD LINEAL ;FRANCISCO L. CABALLERO;AV;;DESP. AV DAROCA;AV. HERMANOS GARCIA NOBLEJAS;FRANCISCO L. CABALLERO, AV. Nº0 DESP. AV DAROCA HERMANOS GARCIA NOBLEJAS;445941,9282;4475123,244;SI;106/N7/;445832,4695;4474915,682;-3.638536;40.42311
1085;;MARQUESINA MOD XXI 4-M REDUCIDA;CIUDAD LINEAL ;DAROCA;AV;;ESQ C/ LARGO CABALLERO;C/ ALCALA;DAROCA, AV Nº0 ESQ C/ LARGO CABALLERO C/ ALCALA;445819;4475192;SI;106/N7/;445709,5425;4474984,44;-3.639991;40.423721
1086;;MARQUESINA MOD XXI 5-M STD;CIUDAD LINEAL ;FRANCISCO L. CABALLERO;AV;;ANT. C/ ARRIGA;AV DAROCA;FRANCISCO L. CABALLERO, AV. Nº0 ANT. C/ ARRIGA AV DAROCA;446025;4475146;SI;106/;445915,5413;4474938,437;-3.637559;40.42332
1093;;MARQUESINA MOD XXI 5-M STD;PUENTE VALLECAS ;BARROS (LOS);CALLE;;ESQ C/ VILLUERCAS;RONDA DEL SUR;BARROS (LOS), CALLE Nº0 ESQ C/ VILLUERCAS  RONDA DEL SUR;443510;4469822;SI;102/103/N11/;443400,4936;4469614,447;-3.666732;40.375191
1095;;MARQUESINA MOD XXI 5-M STD;PUENTE VALLECAS ;PEDROCHES;CALLE;;ESQ C/ BENAMEJI;C/ LA MANCHA;PEDROCHES, CALLE Nº0 ESQ C/ BENAMEJI C/ LA MANCHA;443379;4470148;SI;103/N11/;443269,4975;4469940,45;-3.668304;40.378119
1096;;MARQUESINA MOD XXI 5-M STD;PUENTE VALLECAS ;MANCHA (LA);CALLE;;JTO C/ CARDEÑA;AV ENTREVIAS;MANCHA (LA), CALLE Nº0 JTO C/ CARDEÑA AV ENTREVIAS;443187,435;4470379,044;SI;24/103/111/;443077,9355;4470171,498;-3.670581;40.380187
1097;;MARQUESINA MOD XXI 4-M STD;PUENTE VALLECAS ;MANCHA (LA);CALLE;1;ESQ AV ENTREVIAS;AV ENTREVIAS;MANCHA (LA), CALLE Nº1  ESQ AV ENTREVIAS AV ENTREVIAS;443324,0398;4470505,381;SI;103/111/;443214,5413;4470297,834;-3.668983;40.381335
1098;;MARQUESINA MOD XXI 5-M STD;PUENTE VALLECAS ;MANCHA (LA);CALLE;4;ESQ AV ENTREVIAS;RONDA DEL SUR;MANCHA (LA), CALLE Nº4 ESQ AV ENTREVIAS RONDA DEL SUR;443293,7328;4470496,368;SI;103/111/;443184,2343;4470288,821;-3.669339;40.381252
1101;;MARQUESINA MOD XXI 4-M STD;PUENTE VALLECAS ;CARLOS MARTIN ALVAREZ;CALLE;77;ESQ. AV. SAN DIEGO;AV. ALBUFERA;CARLOS MARTIN ALVAREZ, CALLE Nº77 ESQ. AV. SAN DIEGO AV. ALBUFERA;443543;4470992;SI;103/111/;443433,5062;4470784,451;-3.666447;40.385733
1102;;MARQUESINA MOD XXI 4-M STD;PUENTE VALLECAS ;CARLOS MARTIN ALVAREZ;CALLE;;ESQ C/ MARTINEZ DE LA RIVA.;AV ALBUFERA;CARLOS MARTIN ALVAREZ, CALLE Nº0 ESQ C/ MARTINEZ DE LA RIVA. AV ALBUFERA;443691;4471216;SI;103/111/;443581,5082;4471008,45;-3.664723;40.387761
1104;;MARQUESINA MOD XXI 5-M STD;PUENTE VALLECAS ;JAVIER DE MIGUEL;CALLE;5;ANT C/ CARLOS MARTIN ALVAREZ;C/ MARTINEZ  LA RIVA;JAVIER DE MIGUEL, CALLE Nº5 ANTES C/ CARLOS MARTIN ALVAREZ C/ MARTINEZ  LA RIVA;443795;4471348;SI;103/310/;443685,5093;4471140,449;-3.663509;40.388958
1106;;MARQUESINA MOD XXI 5-M STD;PUENTE VALLECAS ;JAVIER DE MIGUEL;CALLE;;ESQ C/ ANTONIO FOLGUERAS;MARTINEZ RIVA;JAVIER DE MIGUEL, CALLE Nº0 ESQ C/ ANTONIO FOLGUERAS MARTINEZ RIVA;443995,064;4471240,596;SI;103/310/;443885,5716;4471033,042;-3.661143;40.388003
1107;;MARQUESINA MOD XXI 4-M STD;PUENTE VALLECAS ;PAYASO FOFO;CALLE;;FTE Nº 24;AV ALBUFERA;PAYASO FOFO, CALLE Nº0  FTE Nº 24  AV ALBUFERA;444079;4471491;SI;103/;443969,51;4471283,446;-3.660176;40.390265
1110;;MARQUESINA MOD XXI 4-M STD;PUENTE VALLECAS ;PAYASO FOFO;CALLE;;ESQ C/ PUERTO MONASTERIO;C/ CANDILEJAS;PAYASO FOFO, CALLE Nº0 ESQ C/ PUERTO MONASTERIO C/ CANDILEJAS;444117,9924;4471696,907;SI;103/;444008,5044;4471489,353;-3.659735;40.392122
1113;;MARQUESINA MOD XXI 4-M STD;PUENTE VALLECAS ;IMAGEN;CALLE;;FTE Nº 17;AV ENTREVIAS;IMAGEN, CALLE Nº0 FTE Nº 17 AV ENTREVIAS;443465,2976;4470801,368;SI;103/111/144/;443355,802;4470593,82;-3.667345;40.384011
1117;;MARQUESINA MOD XXI 5-M STD;ARGANZUELA ;PIRAMIDES;GTA;;FTE  Pº ACACIAS;PZA LEGAZPI;PIRAMIDES, GTA Nº0 FTE  Pº ACACIAS PZA LEGAZPI;439507,3444;4472656,048;SI;18/;439397,8852;4472448,559;-3.714148;40.400441
1118;;MARQUESINA MOD XXI 4-M STD;ARGANZUELA ;YESERIAS;Pº;;FTE Nº 33;LEGAZPI;YESERIAS, Pº Nº0 FTE Nº 33 LEGAZPI;439955;4472417;SI;18/N12/;439845,5359;4472209,504;-3.70885;40.39832
1121;;MARQUESINA MOD XXI 5-M STD;ARGANZUELA ;CHOPERA (DE LA);Pº;3;ESQ Pº STA MARIA DE LA CABEZA;Pº YESERIAS;CHOPERA (DE LA), Pº Nº3 ESQ Pº STA MARIA DE LA CABEZA Pº YESERIAS;440508;4472200;SI;18/62/N12/;440398,5309;4471992,497;-3.702314;40.396405
1123;;MARQUESINA MOD XXI 4-M STD;ARGANZUELA ;CHOPERA (DE LA);Pº;45;ESQ PZA GRAL MATARO;Pº YESERIAS;CHOPERA (DE LA), Pº Nº45 ANT PZA GRAL MAROTO Pº YESERIAS;440883,9278;4471846,137;SI;6/18/78/148/N12/N14/;440774,453;4471638,627;-3.697852;40.393244
1124;;MARQUESINA MOD XXI 4-M REDUCIDA;ARGANZUELA ;CHOPERA (DE LA);Pº;;ANT PZA LEGAZPI (2ª MarQ);PZA DE LEGAZPI;CHOPERA (DE LA), Pº  ANT PZA LEGAZPI (2ª MARQ) PZA DE LEGAZPI;441041;4471664;SI;6/18/78/148/N12/N14/;440931,5225;4471456,487;-3.695984;40.391614
1125;;MARQUESINA MOD XXI 5-M STD;ARGANZUELA ;CHOPERA (DE LA);Pº;71;ANT C/ ENRIQUE TROMPETA;Pº YESERIAS;CHOPERA (DE LA), Pº Nº71 ANT C/ ENRIQUE TROMPETA Pº YESERIAS;441042;4471704;SI;6/18/78/148/N12/N14/;440932,5229;4471496,488;-3.695976;40.391974
1135;;MARQUESINA MOD XXI 5-M STD;USERA ;ANDALUCIA;AV;;DESP AV DE LOS POBLADOS (1ª MARQ);AV ANDALUCIA;ANDALUCIA, AV DESP AV DE LOS POBLADOS (1ª MARQ) AV ANDALUCIA;441130;4469306;SI;REFUGIO;441020,4955;4469098,476;-3.694718;40.370378
1136;7636;MARQUESINA MOD XXI 5-M STD;USERA ;ANDALUCIA;AV;;FTE AV DE LA PERLA Nº 27;AV SAN FERMIN;ANDALUCIA, AV Nº FTE AV DE LA PERLA Nº 27 AV SAN FERMIN;441168,931;4469287,587;SI;18/22/59/79/85/86/------N13/N14/411/421/422/424/447/448/N401/N402/;441059,4261;4469080,063;-3.694258;40.370215
1139;;MARQUESINA MOD XXI 5-M STD;VILLAVERDE ;VERBENA DE LA PALOMA;AV;8;FTE Nº 5;CIUDAD ANGELES;VERBENA DE LA PALOMA, AVD Nº8 FTE Nº 5 CIUDAD ANGELES;441055;4468216;SI;18/86/N14/;440945,4834;4468008,472;-3.6955;40.360553
1142;;MARQUESINA MOD XXI 5-M STD;VILLAVERDE ;VERBENA DE LA PALOMA;AV;29;DESP C/LA DEL SOTO DEL PARRAL;CTRA ANDALUCIA;VERBENA DE LA PALOMA, AVD Nº29 DESP C/LA DEL SOTO DEL PARRAL CTRA ANDALUCIA;441023;4467925;SI;18/86/;440913,4802;4467717,472;-3.69585;40.357929
1143;;MARQUESINA MOD XXI 4-M STD;VILLAVERDE ;BOHEMIOS;CALLE;;ESQ C/ LA DEL MANOJO DE ROSAS;MANOJO DE ROSAS;BOHEMIOS, CALLE Nº0 ESQ C/ LA DEL MANOJO DE ROSAS MANOJO DE ROSAS;440947,4344;4467762,122;SI;18/86/N14/;440837,9131;4467554,594;-3.696725;40.356457
1144;;MARQUESINA MOD XXI 4-M REDUCIDA;VILLAVERDE ;MANOJO DE ROSAS (LA DEL);CALLE;80;-;C/ ALCOCER;MANOJO DE ROSAS (LA DEL),CALLE Nº80 - C/ ALCOCER;440839,461;4467588,556;SI;18/86/116/;440729,9381;4467381,028;-3.69798;40.354886
1145;;MARQUESINA MOD XXI 4-M STD;VILLAVERDE ;MANOJO DE ROSAS (LA DEL);CALLE;;ESQ C/ ANOETA;C/ ALCOCER;MANOJO DE ROSAS (LA DEL),CALLE Nº0 ESQ C/ ANOETA C/ ALCOCER;440764;4467375;SI;18/86/116/N14/;440654,475;4467167,472;-3.698849;40.352956
1147;;MARQUESINA MOD XXI 4-M REDUCIDA;VILLAVERDE ;ALEGRIA DE LA HUERTA;CALLE;41;PROX. C/ ANOETA;VERBENA PALOMA;ALEGRIA DE LA HUERTA, CALLE Nº41 PROX. C/ ANOETA VERBENA PALOMA;441081;4467428;SI;18/86/116/N14/;440971,4743;4467220,469;-3.695121;40.353456
1150;;MARQUESINA MOD XXI 4-M STD;CARABANCHEL ;MARCELINO CAMACHO;Pº;35;C/ ANTOLINA MERINO;GRAL. RICARDOS;MARCELINO CAMACHO, Pº Nº35 C/ ANTOLINA MERINO GRAL. RICARDOS;437063,6332;4471166,266;SI;35/N17/;436954,1699;4470958,798;-3.742795;40.386839
1152;7602;MARQUESINA MOD XXI 4-M STD;CARABANCHEL ;NTRA. SRA. DE FATIMA;AV;82;FTE CAMPO DE LA MINA;EUGENIA MONTIJO;NTRA. SRA. DE FATIMA, AV Nº82 FTE CAMPO DE LA MINA EUGENIA MONTIJO;436628,9396;4470689,608;SI;35/N17/481/486/;436519,4735;4470482,142;-3.747869;40.382512
1154;;MARQUESINA MOD XXI 4-M STD;CARABANCHEL ;NTRA. SRA. DE FATIMA;AV;92;DESP.C/CODORNIZ;C/EUGENIA MONTIJO;NTRA. SRA. DE FATIMA, AV Nº92 DESP.C/CODORNIZ C/EUGENIA MONTIJO;436566,6832;4470456,91;SI;35/N17/;436457,2146;4470249,443;-3.748579;40.380411
1158;7551;MARQUESINA MOD XXI 4-M STD;CARABANCHEL ;CARABANCHEL ALTO;AV;66;ESQ C/ DE LA PIÑA;LEGANES;CARABANCHEL ALTO, AV Nº66 ESQ C/ DE LA PIÑA LEGANES;436155,809;4469275,869;SI;35/47/N17/481/482/491/492/493/;436046,3287;4469068,401;-3.753301;40.36974
1162;;MARQUESINA MOD XXI 5-M REDUCIDA;CARABANCHEL ;CRUCES (LAS);Cº;;FTE Nº 25;JOAQUIN TURINA;CRUCES (LAS), CAMINO Nº0 FTE Nº 25 JOAQUIN TURINA;435557,0986;4469211,216;SI;35/47/N17/;435447,6215;4469003,754;-3.760346;40.369112
1163;;MARQUESINA MOD XXI 4-M STD;CARABANCHEL ;MARIANISTAS;CALLE;1;ESQ C/ GOMEZ DE ARTECHE;AV. CARABANCHEL ALTO;MARIANISTAS, CALLE Nº1 ESQ C/ GOMEZ DE ARTECHE AV. CARABANCHEL ALTO;435753;4469128;SI;35/47/;435643,5206;4468920,535;-3.75803;40.368377
1169;;MARQUESINA MOD XXI 4-M STD;CARABANCHEL ;PESETA (DE LA);AV;86;DESP C/ ONCE VIGAS;VIA LUSITANA;PESETA (DE LA), AV Nº86 DESP C/ ONCE VIGAS VIA LUSITANA;436311;4468406;SI;35/118/155/;436201,5079;4468198,526;-3.751386;40.361916
1171;;MARQUESINA MOD XXI 5-M STD;ARGANZUELA ;DELICIAS;Pº;139;DESP. PLZ. LEGAZPI;GTA. CARLOS V;DELICIAS, Pº Nº139 DESP. PLZ. LEGAZPI GTA. CARLOS V;441146;4471712;SI;19/;441036,5225;4471504,486;-3.694752;40.392054
1172;7662;MARQUESINA MOD XXI 5-M STD;VILLAVERDE ;ANDALUCIA;AV;;DESP C/ VERBENA DE LA PALOMA;ANDALUCIA;ANDALUCIA, AV Nº DESP C/ VERBENA DE LA PALOMA  ANDALUCIA;441210,9062;4468213,5;SI;22/59/79/85/411/------421/422/424/426/447/448/N401/N402/;441101,3889;4468005,971;-3.693664;40.360542
1174;7664;MARQUESINA MOD XXI 5-M STD;VILLAVERDE ;ANDALUCIA;AV;;DESP. C/ BOHEMIOS;AV ANDALUCIA;ANDALUCIA, AV Nº0 DESP. C/ BOHEMIOS AV ANDALUCIA;441239;4467694;SI;22/59/79/85/411/447/448/;441129,4767;4467486,468;-3.693285;40.355864
1179;;MARQUESINA MOD XXI 5-M STD;VILLAVERDE ;BURJASOT;CALLE;;ESQ C/ BENIFERRI;C/ GODELLA;BURJASOT, CALLE Nº0 ESQ C/ BENIFERRI C/ GODELLA;441414,011;4466498,912;SI;59/79/N13/;441304,4735;4466291,373;-3.691115;40.34511
1181;;MARQUESINA MOD XXI 4-M STD;VILLAVERDE ;ROCAFORT;CALLE;;FTE C/ MONCADA;AV ANDALUCIA;ROCAFORT, CALLE Nº0 FTE C/ MONCADA AV ANDALUCIA;441334,935;4466147,313;SI;59/79/N13/;441225,3938;4465939,774;-3.692014;40.341937
1182;;MARQUESINA MOD XXI 5-M STD;ARGANZUELA ;DELICIAS;Pº;95;-;GTA CARLOS V;DELICIAS, Pº Nº97 - GTA CARLOS V;441174;4472073;SI;8/19/45/47/59/85/---86/247/;441064,5262;4471865,488;-3.694455;40.395308
1184;8211;MARQUESINA MOD XXI 5-M REDUCIDA;ARGANZUELA ;DELICIAS;Pº;47;-;GTA CARLOS V;DELICIAS, Pº Nº47 - GTA CARLOS V;441259;4472892;SI;6/19/45/47/55/59/---85/86/247/N14/N801/N805/N807/;441149,5346;4472684,491;-3.693529;40.402692
1188;;MARQUESINA MOD XXI 4-M STD;ARGANZUELA ;EMBAJADORES;CALLE;;ESQ. PZA. BEATA MARIA ANA DE JESUS;M-30;EMBAJADORES, CALLE Nº0 ESQ. PZA. BEATA MARIA ANA DE JESUS M-30;441095;4472032;SI;8/19/45/47/59/85/---86/247/;440985,5262;4471824,489;-3.695382;40.394933
1189;;MARQUESINA MOD XXI 4-M STD;VILLAVERDE ;VIRGEN DESAMPARADOS;CALLE;4;-;C/ ALCOCER;VIRGEN DESAMPARADOS, CALLE Nº4 - C/ ALCOCER;440758;4467192;SI;18/86/116/N14/;440648,4729;4466984,472;-3.698903;40.351307
1191;8992;MARQUESINA MOD XXI 5-M REDUCIDA ;VILLAVERDE ;ALCOCER;CALLE;;FTE C/ LITOS;REAL DE PINTO;ALCOCER, CALLE Nº0 FTE C/ LITOS REAL DE PINTO;440572,1082;4467022,829;SI;22/86/130/N14/432/448/;440462,5799;4466815,302;-3.701076;40.34977
1192;8991;MARQUESINA MOD XXI 4-M STD;VILLAVERDE ;ALCOCER;CALLE;25;-;CTRA ANDALUCIA;ALCOCER, CALLE Nº25 - CTRA ANDALUCIA;440674,0158;4466986,646;SI;22/86/130/N14/432/448/;440564,4867;4466779,118;-3.699873;40.349451
1193;;MARQUESINA MOD XXI 5-M REDUCIDA;VILLAVERDE ;ALCOCER;CALLE;;JTO APEADERO RENFE;REAL DE PINTO;ALCOCER, CALLE Nº0 JTO APEADERO RENFE REAL DE PINTO;440163;4467057;SI;22/76/86/130/N14/432/448/;440053,4737;4466849,478;-3.705896;40.350049
1194;7653;MARQUESINA MOD XXI 5-M STD;VILLAVERDE ;ALCOCER;CALLE;45;ANTES DE C/ SAN JENARO;AV. ANDALUCIA;ALCOCER, CALLE Nº45 ANTES DE C/ SAN JENARO AV. ANDALUCIA;440207;4467030;SI;76/432/448/;440097,4732;4466822,477;-3.705376;40.349809
1199;;MARQUESINA MOD XXI 5-M REDUCIDA;CIUDAD LINEAL ;CIUDAD LINEAL;PZA;;DESP C/ ARTURO SORIA(1º ISLETA);C/ ALCALA;CIUDAD LINEAL, PZA DESP C/ ARTURO SORIA (1ª ISLETA) - C/ ALCALA;445941,709;4476788,117;SI;4/;445832,2672;4476580,564;-3.63868;40.438108
1202;;MARQUESINA MOD XXI 4-M STD;SAN BLAS ;ARCOS DEL JALON;CALLE;;ESQ C/ SAN ROMAN DEL VALLE;AV. AJALVIR-VIC;ARCOS DEL JALON, CALLE Nº0 ESQ C/ SAN ROMAN DEL VALLE AV. AJALVIVIC;447351;4474828;SI;4/;447241,5357;4474620,416;-3.621902;40.42054
1204;;MARQUESINA MOD XXI 4-M STD;SAN BLAS ;ARCOS DEL JALON;CALLE;48;ESQ. C/ AMPOSTA;AV AJALVIR-VICA;ARCOS DEL JALON, CALLE Nº48 ESQ. C/ AMPOSTA AV AJALVIVICA;447657;4475062;SI;4/;447547,5381;4474854,412;-3.618315;40.422667
1211;18506;MARQUESINA MOD XXI 4-M REDUCIDA;SAN BLAS ;CANILLEJAS A VICALVARO;AV;;FTE. C/ TOSCANA;C/ ALCALA;CANILLEJAS A VICALVARO, AV. Nº0 FTE. C/ TOSCANA C/ ALCALA;448285;4474710;SI;4/106/159/287/;448175,5346;4474502,4;-3.610883;40.419536
1214;;MARQUESINA MOD XXI 4-M STD;VICALVARO ;CASALARREINA;CALLE;21;ESQ C/ CALAHORRA;PZA VICALVARADA;CASALARREINA, CALLE Nº21 ESQ C/ CALAHORRA PZA VICALVARADA;448026;4473504;SI;4/;447916,5226;4473296,398;-3.613838;40.408655
1215;;MARQUESINA MOD XXI 5-M STD;VICALVARO ;CASALARREINA;CALLE;5;ESQ PZA VICALVARADA;PZA VICALVARADA;CASALARREINA, CALLE Nº5 ESQ PZA VICALVARADA PZA VICALVARADA;448292;4473575;SI;4/;448182,5233;4473367,394;-3.610709;40.409311
1224;;MARQUESINA MOD XXI 5-M STD;CHAMBERI ;ALBERTO AGUILERA;CALLE;10; ;C/ PRINCESA;ALBERTO AGUILERA, CALLE Nº 10 - C/ PRINCESA;440130,8252;4475915,16;SI;21/C03/;440021,3983;4475707,682;-3.707108;40.429846
1228;;MARQUESINA MOD XXI 4-M STD;CHAMBERI ;SAGASTA;CALLE;19;ANT DE C/ FRANCISCO DE ROJAS;GTA DE BILBAO;SAGASTA, CALLE Nº 19 ANT C/ FRANCISCO DE ROJAS - GTA DE BILBAO;440815;4475762;SI;21/C03/;440705,5679;4475554,513;-3.699028;40.428515
1234;;MARQUESINA MOD XXI 4-M STD;SALAMANCA ;ROBERTO DOMINGO;CALLE;;ESQ AV DONOSTIARRA;C/ BRASILIA;ROBERTO DOMINGO, CALLE Nº0 ESQ AV DONOSTIARRA C/ BRASILIA;444059;4476442;SI;21/;443949,5616;4476234,472;-3.660847;40.434865
1236;;MARQUESINA MOD XXI 4-M STD;CIUDAD LINEAL ;DONOSTIARRA;AV;12;FTE Nº 11;PZA JOSE BANUS;DONOSTIARRA, AV Nº12 FTE Nº 11 PZA JOSE BANUS;444265,972;4476436,787;SI;21/48/;444156,5327;4476229,256;-3.658406;40.434832
1239;;MARQUESINA MOD XXI 4-M STD;CIUDAD LINEAL ;VIRGEN DEL LLUC;CALLE;;FRENTE AL Nº 4;AV. DONOSTIARRA;VIRGEN DEL LLUC, CALLE Nº FRENTE AL Nº 4 AV. DONOSTIARRA;444521;4476416;SI;21/;444411,5596;4476208,465;-3.655398;40.434662
